{"pagination": {"offset": 6500, "limit": 100, "count": 100, "total": 6685}, "data": [{"id": "6542872", "gmt": "4", "airport_id": "10384", "iata_code": "GSV", "city_iata_code": null, "icao_code": "UWSG", "country_iso2": "RU", "geoname_id": "11459350", "latitude": "51.71252", "longitude": "46.16881", "airport_name": "Saratov Gagarin Airport", "country_name": "Russia", "phone_number": null, "timezone": null}, {"id": "6542873", "gmt": "-5", "airport_id": "10385", "iata_code": "GTB", "city_iata_code": null, "icao_code": "KGTB", "country_iso2": "US", "geoname_id": "6298323", "latitude": "44.05562", "longitude": "-75.71946", "airport_name": "Wheeler-Sack Army Airfield", "country_name": "United States\r\n", "phone_number": null, "timezone": null}, {"id": "6542874", "gmt": "-6", "airport_id": "10386", "iata_code": "GYB", "city_iata_code": null, "icao_code": "KGYB", "country_iso2": "US", "geoname_id": null, "latitude": "30.169167", "longitude": "-96.98", "airport_name": "Giddings\u2013Lee County Airport", "country_name": "United States\r\n", "phone_number": null, "timezone": null}, {"id": "6542875", "gmt": "11", "airport_id": "10387", "iata_code": "GYZ", "city_iata_code": null, "icao_code": "YGRM", "country_iso2": "AU", "geoname_id": "12110485", "latitude": "-28.01838", "longitude": "123.80329", "airport_name": " Gruyere Mine Airport", "country_name": "Australia", "phone_number": null, "timezone": null}, {"id": "6542876", "gmt": "8", "airport_id": "10388", "iata_code": "GZG", "city_iata_code": null, "icao_code": "ZUGZ", "country_iso2": "CN", "geoname_id": "12110486", "latitude": "31.7575", "longitude": "99.554167", "airport_name": "Garze Gesar Airport", "country_name": "China", "phone_number": null, "timezone": null}, {"id": "6542877", "gmt": "8", "airport_id": "10389", "iata_code": "HBQ", "city_iata_code": null, "icao_code": "ZLHB", "country_iso2": "CN", "geoname_id": "11874694", "latitude": "38.012", "longitude": "100.644", "airport_name": "Qilian Airport", "country_name": "China", "phone_number": null, "timezone": null}, {"id": "6542878", "gmt": "5", "airport_id": "10390", "iata_code": "HDK", "city_iata_code": null, "icao_code": "VRBK", "country_iso2": "MV", "geoname_id": "12076772", "latitude": "6.631111", "longitude": "73.066667", "airport_name": "Kulhudhuffushi Airport", "country_name": "Maldives", "phone_number": null, "timezone": null}, {"id": "6542879", "gmt": "5.3", "airport_id": "10391", "iata_code": "HDX", "city_iata_code": null, "icao_code": "VIDX", "country_iso2": "IN", "geoname_id": null, "latitude": "28.70579", "longitude": "77.342137", "airport_name": "Delhi Hindon Airport", "country_name": "India", "phone_number": null, "timezone": null}, {"id": "6542880", "gmt": "5", "airport_id": "10392", "iata_code": "HRF", "city_iata_code": null, "icao_code": "VRAH", "country_iso2": "MV", "geoname_id": null, "latitude": "6.980556", "longitude": "72.895833", "airport_name": "Hoarafushi Airport", "country_name": "Maldives", "phone_number": null, "timezone": null}, {"id": "6542881", "gmt": "6", "airport_id": "10393", "iata_code": "HSA", "city_iata_code": null, "icao_code": "UAIT", "country_iso2": "KZ", "geoname_id": null, "latitude": "43.311111", "longitude": "68.550278", "airport_name": "Hazret Sultan International Airport", "country_name": "Kazakhstan", "phone_number": null, "timezone": null}, {"id": "6542882", "gmt": "8", "airport_id": "10394", "iata_code": "HTT", "city_iata_code": null, "icao_code": "ZLHX", "country_iso2": "CN", "geoname_id": "11103469", "latitude": "38.201984", "longitude": "90.841495", "airport_name": "Huatugou Airport", "country_name": "China", "phone_number": null, "timezone": null}, {"id": "6542883", "gmt": "8", "airport_id": "10395", "iata_code": "HXD", "city_iata_code": null, "icao_code": "ZLDL", "country_iso2": "CN", "geoname_id": "8581628", "latitude": "37.125286", "longitude": "97.268658", "airport_name": "Delingha Airport", "country_name": "China", "phone_number": null, "timezone": null}, {"id": "6542884", "gmt": "-6", "airport_id": "10396", "iata_code": "HYI", "city_iata_code": null, "icao_code": "KHYI", "country_iso2": "US", "geoname_id": null, "latitude": "29.892778", "longitude": "-97.863056", "airport_name": "San Marcos Regional Airport", "country_name": "United States", "phone_number": null, "timezone": null}, {"id": "6542885", "gmt": "6", "airport_id": "10397", "iata_code": "IKU", "city_iata_code": null, "icao_code": "UAFL", "country_iso2": "KG", "geoname_id": "8532010", "latitude": "42.58792", "longitude": "76.713046", "airport_name": "Issyk-Kul International Airport\r\n", "country_name": "Kyrgyzstan", "phone_number": null, "timezone": null}, {"id": "6542886", "gmt": "-6", "airport_id": "10398", "iata_code": "ILS", "city_iata_code": null, "icao_code": "MSSS", "country_iso2": "SV", "geoname_id": "6299912", "latitude": "13.691667", "longitude": "-89.125556", "airport_name": "Ilopango International Airport", "country_name": "El Salvador", "phone_number": null, "timezone": null}, {"id": "6542887", "gmt": "3.3", "airport_id": "10399", "iata_code": "IMQ", "city_iata_code": null, "icao_code": "OITU", "country_iso2": "IR", "geoname_id": "6676732", "latitude": "39.1925", "longitude": "44.925278", "airport_name": "Maku International Airport\r\n\r\n", "country_name": "Iran", "phone_number": null, "timezone": null}, {"id": "6542889", "gmt": "11", "airport_id": "10401", "iata_code": "ITU", "city_iata_code": null, "icao_code": "UHSI", "country_iso2": "RU", "geoname_id": "10943293", "latitude": "45.256389", "longitude": "147.955833", "airport_name": "Iturup Airport", "country_name": "Russia", "phone_number": null, "timezone": null}, {"id": "6542890", "gmt": "5.3", "airport_id": "10402", "iata_code": "IXX", "city_iata_code": null, "icao_code": "VOBR", "country_iso2": "IN", "geoname_id": "8441899", "latitude": "17.9", "longitude": "77.47", "airport_name": "Bidar Airport", "country_name": "India", "phone_number": null, "timezone": null}, {"id": "6542891", "gmt": "-3", "airport_id": "10403", "iata_code": "JJD", "city_iata_code": null, "icao_code": "SBJE", "country_iso2": "BR", "geoname_id": null, "latitude": "-2.906667", "longitude": "-40.358056", "airport_name": "Comte. Ariston Pessoa Regional Airport", "country_name": "Brazil", "phone_number": "+55 85 2181-6277", "timezone": "America/Fortaleza"}, {"id": "6542892", "gmt": "-3", "airport_id": "10404", "iata_code": "JJG", "city_iata_code": "JJG", "icao_code": "SBJA", "country_iso2": "BR", "geoname_id": "10942827", "latitude": "-28.675278", "longitude": "-49.060278", "airport_name": "Jaguaruna Regional Airport", "country_name": "Brazil", "phone_number": null, "timezone": null}, {"id": "6542893", "gmt": "5.3", "airport_id": "10405", "iata_code": "JLG", "city_iata_code": null, "icao_code": "VAJL", "country_iso2": "IN", "geoname_id": "8477328", "latitude": "20.961944", "longitude": "75.626667", "airport_name": "Jalgaon Airport", "country_name": "India", "phone_number": null, "timezone": null}, {"id": "6542894", "gmt": "8", "airport_id": "10406", "iata_code": "JMJ", "city_iata_code": null, "icao_code": "ZPJM", "country_iso2": "CN", "geoname_id": "11288239", "latitude": "22.415833", "longitude": "99.786389", "airport_name": "Lancang Jingmai Airport", "country_name": "China", "phone_number": null, "timezone": null}, {"id": "6542895", "gmt": "5.3", "airport_id": "10407", "iata_code": "JRG", "city_iata_code": null, "icao_code": "VEJH", "country_iso2": "IN", "geoname_id": "6301074", "latitude": "21.913333", "longitude": "84.050278", "airport_name": "Jharsuguda Airport", "country_name": "India", "phone_number": null, "timezone": null}, {"id": "6542896", "gmt": "8", "airport_id": "10408", "iata_code": "JSJ", "city_iata_code": null, "icao_code": "ZYJS", "country_iso2": "CN", "geoname_id": "11237564", "latitude": "47.11", "longitude": "132.660278", "airport_name": "Jiansanjiang Airport", "country_name": "China", "phone_number": null, "timezone": null}, {"id": "6542897", "gmt": "-5", "airport_id": "10409", "iata_code": "JZI", "city_iata_code": null, "icao_code": "KJZI", "country_iso2": "US", "geoname_id": "4574334", "latitude": "32.700833", "longitude": "-80.002778", "airport_name": "Charleston Executive Airport", "country_name": "United States", "phone_number": null, "timezone": null}, {"id": "6542898", "gmt": "3", "airport_id": "10410", "iata_code": "KFS", "city_iata_code": null, "icao_code": "LTAL", "country_iso2": "TR", "geoname_id": "7730645", "latitude": "41.314201355", "longitude": "33.7957992554", "airport_name": "Kastamonu Airport", "country_name": "Turkey", "phone_number": null, "timezone": null}, {"id": "6542899", "gmt": "3", "airport_id": "10411", "iata_code": "KHB", "city_iata_code": null, "icao_code": "OBKH", "country_iso2": "BH", "geoname_id": null, "latitude": "26.034722", "longitude": "50.524444", "airport_name": "Sakhir Air Base", "country_name": "Bahrain", "phone_number": null, "timezone": null}, {"id": "6542900", "gmt": "8", "airport_id": "10412", "iata_code": "KJH", "city_iata_code": null, "icao_code": "ZUKJ", "country_iso2": "CN", "geoname_id": "8521371", "latitude": "26.972", "longitude": "107.988", "airport_name": "Kaili Airport", "country_name": "China", "phone_number": null, "timezone": null}, {"id": "6542901", "gmt": "5.3", "airport_id": "10413", "iata_code": "KQH", "city_iata_code": null, "icao_code": "VIKG", "country_iso2": "IN", "geoname_id": "11669749", "latitude": "26.601473", "longitude": "74.814147", "airport_name": "Kishangarh Airport", "country_name": "India", "phone_number": null, "timezone": null}, {"id": "6542902", "gmt": null, "airport_id": "10414", "iata_code": "KXB", "city_iata_code": null, "icao_code": "WAWP", "country_iso2": "ID", "geoname_id": null, "latitude": "-4.341217", "longitude": "121.523983", "airport_name": "Kolaka Airport", "country_name": "Indonesia", "phone_number": null, "timezone": null}, {"id": "6542903", "gmt": "8", "airport_id": "10415", "iata_code": "LFQ", "city_iata_code": null, "icao_code": "ZBLF", "country_iso2": "CN", "geoname_id": "11102728", "latitude": "36.132629", "longitude": "111.641236", "airport_name": "Linfen Qiaoli Airport", "country_name": "China", "phone_number": null, "timezone": null}, {"id": "6542904", "gmt": "8", "airport_id": "10416", "iata_code": "LHW", "city_iata_code": null, "icao_code": "ZLLL", "country_iso2": "CN", "geoname_id": "6301373", "latitude": "36.5152015686", "longitude": "103.620002747", "airport_name": "Lanzhou Zhongchuan Airport", "country_name": "China", "phone_number": null, "timezone": null}, {"id": "6542905", "gmt": "9", "airport_id": "10417", "iata_code": "LLJ", "city_iata_code": null, "icao_code": "WIPB", "country_iso2": "ID", "geoname_id": "9036044", "latitude": "-3.28", "longitude": "102.917222", "airport_name": "Silampari Airport", "country_name": "Indonesia\r\n", "phone_number": null, "timezone": null}, {"id": "6542906", "gmt": "8", "airport_id": "10418", "iata_code": "LLO", "city_iata_code": null, "icao_code": "WAFD", "country_iso2": "ID", "geoname_id": null, "latitude": "-3.084722", "longitude": "120.245278", "airport_name": "Bua Airport", "country_name": "Indonesia\r\n", "phone_number": null, "timezone": null}, {"id": "6542907", "gmt": "8", "airport_id": "10419", "iata_code": "LLV", "city_iata_code": null, "icao_code": "ZBLL", "country_iso2": "CN", "geoname_id": "8593872", "latitude": "37.683333", "longitude": "111.142778", "airport_name": "L\u00fcliang Airport", "country_name": "China", "phone_number": null, "timezone": null}, {"id": "6542908", "gmt": "7", "airport_id": "10420", "iata_code": "LMU", "city_iata_code": null, "icao_code": "WIDL", "country_iso2": "ID", "geoname_id": "11862126", "latitude": "2.964167", "longitude": "105.754444", "airport_name": "Letung Airport", "country_name": "Indonesia\r\n", "phone_number": null, "timezone": null}, {"id": "6542909", "gmt": "8", "airport_id": "10421", "iata_code": "LNL", "city_iata_code": null, "icao_code": "ZLLN", "country_iso2": "CN", "geoname_id": "11778483", "latitude": "33.788", "longitude": "105.797", "airport_name": "Longnan Chengzhou Airport", "country_name": "China", "phone_number": null, "timezone": null}, {"id": "6542910", "gmt": "9", "airport_id": "10422", "iata_code": "LNU", "city_iata_code": null, "icao_code": "WAQM", "country_iso2": "ID", "geoname_id": "8531915", "latitude": "3.575278", "longitude": "116.619722", "airport_name": "Robert Atty Bessing Airport", "country_name": "Indonesia\r\n", "phone_number": null, "timezone": null}, {"id": "6542911", "gmt": "8", "airport_id": "10423", "iata_code": "LPF", "city_iata_code": null, "icao_code": "ZUPS", "country_iso2": "CN", "geoname_id": null, "latitude": "26.609417", "longitude": "104.979", "airport_name": "Liupanshui Yuezhao Airport", "country_name": "China", "phone_number": null, "timezone": null}, {"id": "6542912", "gmt": "8", "airport_id": "10424", "iata_code": "MOH", "city_iata_code": null, "icao_code": "WAFO", "country_iso2": "ID", "geoname_id": null, "latitude": "-2.203333", "longitude": "121.660278", "airport_name": "Maleo Airport", "country_name": "Indonesia\r\n", "phone_number": null, "timezone": null}, {"id": "6542913", "gmt": "-10", "airport_id": "10425", "iata_code": "NGF", "city_iata_code": null, "icao_code": "PHNG", "country_iso2": "US", "geoname_id": "6300277", "latitude": "21.4505004", "longitude": "-157.768", "airport_name": "Kaneohe Bay MCAS (Marion E. Carl Field) Airport", "country_name": "United States\r\n", "phone_number": null, "timezone": null}, {"id": "6542914", "gmt": "3", "airport_id": "10426", "iata_code": "NKT", "city_iata_code": null, "icao_code": "LTCV", "country_iso2": "TR", "geoname_id": "8593875", "latitude": "37.3647", "longitude": "42.0582", "airport_name": "Sirnak Serafettin Elci Airport", "country_name": "Turkey", "phone_number": null, "timezone": null}, {"id": "6542915", "gmt": "8", "airport_id": "10427", "iata_code": "NLH", "city_iata_code": null, "icao_code": "ZPNL", "country_iso2": "CN", "geoname_id": "10943299", "latitude": "27.5403", "longitude": "100.7593", "airport_name": "Ninglang Luguhu Airport", "country_name": "China", "phone_number": null, "timezone": null}, {"id": "6542916", "gmt": "10", "airport_id": "10428", "iata_code": "NLI", "city_iata_code": null, "icao_code": "UHNN", "country_iso2": "RU", "geoname_id": "8617215", "latitude": "53.154999", "longitude": "140.649994", "airport_name": "Nikolayevsk-na-Amure Airport", "country_name": "Russia", "phone_number": null, "timezone": null}, {"id": "6542917", "gmt": "5", "airport_id": "10429", "iata_code": "NMF", "city_iata_code": null, "icao_code": "VRDA", "country_iso2": "MV", "geoname_id": "12088696", "latitude": "5.822222", "longitude": "5.822222", "airport_name": "Maafaru International Airport", "country_name": "Maldives", "phone_number": null, "timezone": null}, {"id": "6542919", "gmt": "6.5", "airport_id": "10431", "iata_code": "NYW", "city_iata_code": null, "icao_code": "VYMY", "country_iso2": "MM", "geoname_id": null, "latitude": "22.221638", "longitude": "95.093479", "airport_name": "Monywar Airport", "country_name": "Burma", "phone_number": null, "timezone": null}, {"id": "6542920", "gmt": "8", "airport_id": "10432", "iata_code": "NZL", "city_iata_code": null, "icao_code": "ZBZL", "country_iso2": "CN", "geoname_id": "11185307", "latitude": "47.865833", "longitude": "122.767503", "airport_name": "Chengjisihan Airport", "country_name": "China", "phone_number": null, "timezone": null}, {"id": "6542921", "gmt": "8", "airport_id": "10433", "iata_code": "OCM", "city_iata_code": null, "icao_code": "YBGD", "country_iso2": "AU", "geoname_id": "8533724", "latitude": "-22.54", "longitude": "117.275", "airport_name": "Boolgeeda Airport", "country_name": "Australia", "phone_number": null, "timezone": null}, {"id": "6542922", "gmt": "3", "airport_id": "10434", "iata_code": "OGU", "city_iata_code": null, "icao_code": "LTCB", "country_iso2": "TR", "geoname_id": "10234006", "latitude": "40.966047", "longitude": "38.080994", "airport_name": "Ordu Giresun Airport", "country_name": "Turkey", "phone_number": null, "timezone": null}, {"id": "6542923", "gmt": "8", "airport_id": "10435", "iata_code": "OJU", "city_iata_code": null, "icao_code": "WAFU", "country_iso2": "ID", "geoname_id": "11951800", "latitude": "-0.864417", "longitude": "121.623083", "airport_name": "Tanjung Api Airport ", "country_name": "Indonesia", "phone_number": null, "timezone": null}, {"id": "6542925", "gmt": "3", "airport_id": "10437", "iata_code": "OSF", "city_iata_code": null, "icao_code": "UUMO", "country_iso2": "RU", "geoname_id": "8030066", "latitude": "55.511667", "longitude": "37.507222", "airport_name": "Ostafyevo International Airport", "country_name": "Russia", "phone_number": null, "timezone": null}, {"id": "6542926", "gmt": "7", "airport_id": "10438", "iata_code": "PHQ", "city_iata_code": null, "icao_code": "YTMO", "country_iso2": "AU", "geoname_id": "8555618", "latitude": "-21.811667", "longitude": "139.923333", "airport_name": "The Monument Airport", "country_name": "Australia", "phone_number": null, "timezone": null}, {"id": "6542927", "gmt": "-5", "airport_id": "10439", "iata_code": "PNM", "city_iata_code": null, "icao_code": "KPNM", "country_iso2": "US", "geoname_id": "5042363", "latitude": "45.56", "longitude": "-93.608333", "airport_name": "Princeton Municipal Airport", "country_name": "United States\r\n", "phone_number": null, "timezone": null}, {"id": "6542928", "gmt": "-7", "airport_id": "10440", "iata_code": "PWY", "city_iata_code": null, "icao_code": "KPNA", "country_iso2": "US", "geoname_id": "5835906", "latitude": "42.79550171", "longitude": "-109.8069992", "airport_name": "Ralph Wenz Field", "country_name": "United States\r\n", "phone_number": null, "timezone": null}, {"id": "6542929", "gmt": "5.3", "airport_id": "10441", "iata_code": "PYG", "city_iata_code": null, "icao_code": "VEPY", "country_iso2": "IN", "geoname_id": "11928000", "latitude": "27.2325", "longitude": "88.588333", "airport_name": "Pakyong Airport", "country_name": "India", "phone_number": null, "timezone": null}, {"id": "6542931", "gmt": "-3", "airport_id": "10443", "iata_code": "QDV", "city_iata_code": null, "icao_code": "SBJD", "country_iso2": "BR", "geoname_id": "8533002", "latitude": "-23.181667", "longitude": "-46.943611", "airport_name": "Comte. Rolim Adolfo Amaro State Airport", "country_name": "Brazil", "phone_number": null, "timezone": null}, {"id": "6542932", "gmt": null, "airport_id": "10444", "iata_code": "QEA", "city_iata_code": null, "icao_code": "EKAC", "country_iso2": "DK", "geoname_id": null, "latitude": null, "longitude": null, "airport_name": "Aarhus Sea Airport", "country_name": "Denmark", "phone_number": null, "timezone": null}, {"id": "6542933", "gmt": null, "airport_id": "10445", "iata_code": "QEC", "city_iata_code": null, "icao_code": "EKCC", "country_iso2": "DK", "geoname_id": null, "latitude": null, "longitude": null, "airport_name": "Copenhagen Sea Airport", "country_name": "Denmark", "phone_number": null, "timezone": null}, {"id": "6542934", "gmt": "1", "airport_id": "10446", "iata_code": "QEF", "city_iata_code": null, "icao_code": "EDFE", "country_iso2": "DE", "geoname_id": "3272939", "latitude": "49.959999", "longitude": "8.645833", "airport_name": "Frankfurt-Egelsbach Airport", "country_name": "Germany", "phone_number": null, "timezone": null}, {"id": "6542935", "gmt": "1", "airport_id": "10447", "iata_code": "QEG", "city_iata_code": null, "icao_code": "LHFM", "country_iso2": "HU", "geoname_id": "8555600", "latitude": "47.582778", "longitude": "16.845278", "airport_name": "Fertoszentmiklos Meidl Airport", "country_name": "Hungary", "phone_number": null, "timezone": null}, {"id": "6542936", "gmt": "1", "airport_id": "10448", "iata_code": "QEJ", "city_iata_code": null, "icao_code": "EDWF", "country_iso2": "DE", "geoname_id": "11153073", "latitude": "53.271592", "longitude": "7.44234", "airport_name": "Leer Papenburg Airport", "country_name": "Germany", "phone_number": null, "timezone": null}, {"id": "6542937", "gmt": "1", "airport_id": "10449", "iata_code": "QEK", "city_iata_code": null, "icao_code": "EHBD", "country_iso2": "NL", "geoname_id": "8532048", "latitude": "51.254444", "longitude": "5.600833", "airport_name": "Kempen Airport", "country_name": "Netherlands", "phone_number": null, "timezone": null}, {"id": "6542938", "gmt": "1", "airport_id": "10450", "iata_code": "QEL", "city_iata_code": null, "icao_code": "ESTL", "country_iso2": "SE", "geoname_id": "2694555", "latitude": "56.082801", "longitude": "13.21249", "airport_name": "Ljungbyhed Airport", "country_name": "Sweden", "phone_number": null, "timezone": null}, {"id": "6542939", "gmt": "1", "airport_id": "10451", "iata_code": "QEP", "city_iata_code": null, "icao_code": "LKPM", "country_iso2": "CZ", "geoname_id": "11711463", "latitude": "49.7201", "longitude": "14.1006", "airport_name": "Pribram Airport", "country_name": "Czechia", "phone_number": null, "timezone": null}, {"id": "6542940", "gmt": "1", "airport_id": "10452", "iata_code": "QER", "city_iata_code": null, "icao_code": "EDFB", "country_iso2": "DE", "geoname_id": "3208160", "latitude": "50.33583", "longitude": "8.87805", "airport_name": "Reichelsheim Airport", "country_name": "Germany", "phone_number": null, "timezone": null}, {"id": "6542941", "gmt": "1", "airport_id": "10453", "iata_code": "QEU", "city_iata_code": null, "icao_code": "LHUD", "country_iso2": "HU", "geoname_id": "6299532", "latitude": "46.246895", "longitude": "20.090799", "airport_name": "Szeged Airport", "country_name": "Hungary", "phone_number": null, "timezone": null}, {"id": "6542942", "gmt": "1", "airport_id": "10454", "iata_code": "QEV", "city_iata_code": null, "icao_code": "EDLS", "country_iso2": "DE", "geoname_id": "3206112", "latitude": "51.9958343506", "longitude": "6.8405561447", "airport_name": "Stadtlohn Vreden Airport", "country_name": "Germany", "phone_number": null, "timezone": null}, {"id": "6542943", "gmt": "1", "airport_id": "10455", "iata_code": "QEX", "city_iata_code": null, "icao_code": "EDXR", "country_iso2": "DE", "geoname_id": "3208582", "latitude": "54.2200012207", "longitude": "9.5994443893", "airport_name": "Rendsburg Schachtholm Airport", "country_name": "Germany", "phone_number": null, "timezone": null}, {"id": "6542944", "gmt": "1", "airport_id": "10456", "iata_code": "QEZ", "city_iata_code": null, "icao_code": "EDFZ", "country_iso2": "DE", "geoname_id": "3272937", "latitude": "49.967499", "longitude": "8.147222", "airport_name": "Mainz Finthen Airport", "country_name": "Germany", "phone_number": null, "timezone": null}, {"id": "6542945", "gmt": null, "airport_id": "10457", "iata_code": "QLA", "city_iata_code": null, "icao_code": "EGHL", "country_iso2": "GB", "geoname_id": "7668208", "latitude": "51.1871986389", "longitude": "-1.0334999", "airport_name": "Lasham Airport", "country_name": "United Kingdom", "phone_number": null, "timezone": null}, {"id": "6542947", "gmt": "-6", "airport_id": "10459", "iata_code": "QQA", "city_iata_code": null, "icao_code": "KANE", "country_iso2": "US", "geoname_id": null, "latitude": "45.145", "longitude": "-93.210278", "airport_name": "Anoka County\u2013Blaine Airport ", "country_name": "United States", "phone_number": null, "timezone": null}, {"id": "6542948", "gmt": "-5", "airport_id": "10460", "iata_code": "QQB", "city_iata_code": null, "icao_code": "KEVB", "country_iso2": "US", "geoname_id": "4165915", "latitude": "29.0557003021", "longitude": "-80.9488983154", "airport_name": "New Smyrna Beach Municipal Airport", "country_name": "United States", "phone_number": null, "timezone": null}, {"id": "6542950", "gmt": "-7", "airport_id": "10462", "iata_code": "QQE", "city_iata_code": null, "icao_code": "KEIK", "country_iso2": "US", "geoname_id": "5582862", "latitude": "40.0102005005", "longitude": "-105.047996521", "airport_name": "Erie Municipal Airport", "country_name": "United States", "phone_number": null, "timezone": null}, {"id": "6542951", "gmt": "-5", "airport_id": "10463", "iata_code": "QQF", "city_iata_code": null, "icao_code": "KFIN", "country_iso2": "US", "geoname_id": null, "latitude": "29.4651511", "longitude": "-81.2076489", "airport_name": "Bunnell Flagler County Airport", "country_name": "United States", "phone_number": null, "timezone": null}, {"id": "6542952", "gmt": "-6", "airport_id": "10464", "iata_code": "QQG", "city_iata_code": null, "icao_code": "KGKY", "country_iso2": "US", "geoname_id": "4671253", "latitude": "32.663898468", "longitude": "-97.0942993164", "airport_name": "Arlington Municipal Airport", "country_name": "United States", "phone_number": null, "timezone": null}, {"id": "6542953", "gmt": "-6", "airport_id": "10465", "iata_code": "QQI", "city_iata_code": null, "icao_code": "KIGQ", "country_iso2": "US", "geoname_id": "6298438", "latitude": "41.5349006653", "longitude": "-87.5295028687", "airport_name": "Chicago Lansing Municipal Airport", "country_name": "United States", "phone_number": null, "timezone": null}, {"id": "6542954", "gmt": "-6", "airport_id": "10466", "iata_code": "QQL", "city_iata_code": null, "icao_code": "KLXT", "country_iso2": "US", "geoname_id": "6298594", "latitude": "38.95970154", "longitude": "-94.37139893", "airport_name": "Lee's Summit Municipal Airport", "country_name": "United States", "phone_number": null, "timezone": null}, {"id": "6542955", "gmt": "-5", "airport_id": "10467", "iata_code": "QQQ", "city_iata_code": null, "icao_code": "KMQJ", "country_iso2": "US", "geoname_id": "4122411", "latitude": "39.84349823", "longitude": "-85.89710236", "airport_name": "Mount Comfort Airport", "country_name": "United States", "phone_number": null, "timezone": null}, {"id": "6542956", "gmt": "-3", "airport_id": "10468", "iata_code": "QQT", "city_iata_code": null, "icao_code": "BGQE", "country_iso2": "GL", "geoname_id": "7730419", "latitude": "69.9958611087", "longitude": "-51.3009166718", "airport_name": "Qeqertaq Heliport", "country_name": "Greenland", "phone_number": null, "timezone": null}, {"id": "6542957", "gmt": "-5", "airport_id": "10469", "iata_code": "QQV", "city_iata_code": null, "icao_code": "KVPC", "country_iso2": "US", "geoname_id": "4186532", "latitude": "34.1231002808", "longitude": "-84.8487014771", "airport_name": "Cartersville Airport", "country_name": "United States", "phone_number": null, "timezone": null}, {"id": "6542958", "gmt": "-5", "airport_id": "10470", "iata_code": "QQZ", "city_iata_code": null, "icao_code": "KBAZ", "country_iso2": "US", "geoname_id": "4714136", "latitude": "29.7045001984", "longitude": "-98.0421981812", "airport_name": "New Braunfels Regional Airport", "country_name": "United States", "phone_number": null, "timezone": null}, {"id": "6542959", "gmt": "8", "airport_id": "10471", "iata_code": "QSZ", "city_iata_code": null, "icao_code": "ZWSC", "country_iso2": "CN", "geoname_id": "11669752", "latitude": "38.245", "longitude": "77.06", "airport_name": "Shache Airport ", "country_name": "China", "phone_number": null, "timezone": null}, {"id": "6542960", "gmt": "1", "airport_id": "10472", "iata_code": "QXB", "city_iata_code": null, "icao_code": "LFMA", "country_iso2": "FR", "geoname_id": null, "latitude": "43.505278", "longitude": "5.367222", "airport_name": "Aix-en-Provence Aerodrome", "country_name": "France", "phone_number": null, "timezone": null}, {"id": "6542961", "gmt": "1", "airport_id": "10473", "iata_code": "QYA", "city_iata_code": null, "icao_code": "LFLI", "country_iso2": "FR", "geoname_id": "6694616", "latitude": "46.1920013428", "longitude": "6.2683901787", "airport_name": "Annemasse Airport", "country_name": "France", "phone_number": null, "timezone": null}, {"id": "6542962", "gmt": "1", "airport_id": "10474", "iata_code": "QYB", "city_iata_code": null, "icao_code": "LFQM", "country_iso2": "FR", "geoname_id": "6299465", "latitude": "47.2066", "longitude": "6.083681", "airport_name": "Besancon La Veze Airport", "country_name": "France", "phone_number": null, "timezone": null}, {"id": "6542963", "gmt": "1", "airport_id": "10475", "iata_code": "QYR", "city_iata_code": null, "icao_code": "LFQB", "country_iso2": "FR", "geoname_id": null, "latitude": "48.321667", "longitude": "4.016667", "airport_name": "Troyes \u2013 Barberey Airport", "country_name": "France", "phone_number": null, "timezone": null}, {"id": "6542964", "gmt": "10", "airport_id": "10476", "iata_code": "RAB", "city_iata_code": null, "icao_code": "AYTK", "country_iso2": "PG", "geoname_id": null, "latitude": "-4.340278", "longitude": "152.379444", "airport_name": "Rabaul Airport", "country_name": "Papua New Guinea", "phone_number": null, "timezone": null}, {"id": "6542965", "gmt": "5.3", "airport_id": "10477", "iata_code": "RDP", "city_iata_code": null, "icao_code": "VEDG", "country_iso2": "IN", "geoname_id": "10942839", "latitude": "23.6225", "longitude": "87.243", "airport_name": "Kazi Nazrul Islam Airport", "country_name": "India", "phone_number": null, "timezone": null}, {"id": "6542966", "gmt": "-5", "airport_id": "10478", "iata_code": "RIH", "city_iata_code": null, "icao_code": "MPRH", "country_iso2": "PA", "geoname_id": "3701862", "latitude": "8.3758802414", "longitude": "-80.1278991699", "airport_name": "Scarlett Martinez International Airport", "country_name": "Panama", "phone_number": null, "timezone": null}, {"id": "6542967", "gmt": "5.3", "airport_id": "10479", "iata_code": "SAG", "city_iata_code": null, "icao_code": "VASD", "country_iso2": "IN", "geoname_id": "8532031", "latitude": "19.688611", "longitude": "74.378889", "airport_name": "Shirdi Airport", "country_name": "India", "phone_number": null, "timezone": null}, {"id": "6542968", "gmt": "5", "airport_id": "10480", "iata_code": "SBT", "city_iata_code": null, "icao_code": "USDA", "country_iso2": "RU", "geoname_id": "11103760", "latitude": "71.219167", "longitude": "72.052222", "airport_name": "Sabetta International Airport", "country_name": "Russia", "phone_number": null, "timezone": null}, {"id": "6542969", "gmt": "1", "airport_id": "10481", "iata_code": "SCR", "city_iata_code": null, "icao_code": "ESKS", "country_iso2": "SE", "geoname_id": "2681745", "latitude": "61.159", "longitude": "12.84", "airport_name": "Scandinavian Mountains Airport", "country_name": "Sweden", "phone_number": null, "timezone": null}, {"id": "6542970", "gmt": "8", "airport_id": "10482", "iata_code": "SHF", "city_iata_code": null, "icao_code": "ZWHZ", "country_iso2": "CN", "geoname_id": "11493761", "latitude": "44.241667", "longitude": "85.891111", "airport_name": "Shihezi Huayuan Airport", "country_name": null, "phone_number": null, "timezone": null}, {"id": "6542971", "gmt": "2", "airport_id": "10483", "iata_code": "SPX", "city_iata_code": null, "icao_code": "HESX", "country_iso2": "EG", "geoname_id": "11203813", "latitude": "30.109722", "longitude": "30.894444", "airport_name": "Sphinx International Airport", "country_name": "Egypt", "phone_number": null, "timezone": null}, {"id": "6542972", "gmt": "8", "airport_id": "10484", "iata_code": "SQD", "city_iata_code": null, "icao_code": "ZSSR", "country_iso2": "CN", "geoname_id": "11154613", "latitude": "28.3797", "longitude": "117.9643", "airport_name": "Shangrao Sanqingshan Airport", "country_name": "China", "phone_number": null, "timezone": null}, {"id": "6542973", "gmt": "8", "airport_id": "10485", "iata_code": "SQJ", "city_iata_code": null, "icao_code": "ZSSM", "country_iso2": "CN", "geoname_id": "11102729", "latitude": "26.4263", "longitude": "117.8336", "airport_name": "Shaxian Airport", "country_name": null, "phone_number": null, "timezone": null}, {"id": "6542974", "gmt": "-5", "airport_id": "10486", "iata_code": "SSM", "city_iata_code": null, "icao_code": "KANJ", "country_iso2": "US", "geoname_id": "5009005", "latitude": "46.479167", "longitude": "-84.368333", "airport_name": "Sault Ste. Marie Municipal Airport ", "country_name": "United States", "phone_number": null, "timezone": null}, {"id": "6542975", "gmt": "1", "airport_id": "10487", "iata_code": "TEV", "city_iata_code": null, "icao_code": "LETL", "country_iso2": "ES", "geoname_id": "10943187", "latitude": "40.411944", "longitude": "-1.2175", "airport_name": "Teruel Airport", "country_name": "Spain", "phone_number": null, "timezone": null}, {"id": "6542976", "gmt": "-4", "airport_id": "10488", "iata_code": "TJL", "city_iata_code": null, "icao_code": "SSTL", "country_iso2": "BR", "geoname_id": "8643372", "latitude": "-20.75306", "longitude": "-51.682", "airport_name": "Pl\u00ednio Alarcom Airport\r\n", "country_name": "Brazil", "phone_number": null, "timezone": null}, {"id": "6542977", "gmt": "9", "airport_id": "10489", "iata_code": "TLK", "city_iata_code": null, "icao_code": "UECT", "country_iso2": "RU", "geoname_id": "8468841", "latitude": "59.876389", "longitude": "111.044444", "airport_name": "Talakan Airport", "country_name": "Russia", "phone_number": null, "timezone": null}]}