{"pagination": {"offset": 6400, "limit": 100, "count": 100, "total": 6685}, "data": [{"id": "6542518", "gmt": "6", "airport_id": "9744", "iata_code": "ZHM", "city_iata_code": "ZHM", "icao_code": "VGSH", "country_iso2": "BD", "geoname_id": "7731653", "latitude": "24.398611", "longitude": "91.92111", "airport_name": "Shamshernagar", "country_name": "Bangladesh", "phone_number": null, "timezone": "Asia/Dhaka"}, {"id": "6542521", "gmt": "-7", "airport_id": "9747", "iata_code": "ZHP", "city_iata_code": "ZHP", "icao_code": "CZHP", "country_iso2": "CA", "geoname_id": "8260827", "latitude": "55.4", "longitude": "-116.48333", "airport_name": "High Prairie", "country_name": "Canada", "phone_number": null, "timezone": "America/Edmonton"}, {"id": "6542528", "gmt": "8", "airport_id": "9754", "iata_code": "ZHY", "city_iata_code": "ZHY", "icao_code": "ZLZW", "country_iso2": "CN", "geoname_id": "7910247", "latitude": "37.568935", "longitude": "105.15253", "airport_name": "Xiangshan", "country_name": "China", "phone_number": null, "timezone": "Asia/Shanghai"}, {"id": "6542531", "gmt": "-4", "airport_id": "9757", "iata_code": "ZIC", "city_iata_code": "ZIC", "icao_code": "SCTO", "country_iso2": "CL", "geoname_id": "7730170", "latitude": "-38.216667", "longitude": "-72.333336", "airport_name": "Victoria", "country_name": null, "phone_number": null, "timezone": "America/Santiago"}, {"id": "6542535", "gmt": null, "airport_id": "9761", "iata_code": "ZIG", "city_iata_code": "ZIG", "icao_code": "GOGG", "country_iso2": "SN", "geoname_id": "2243942", "latitude": "12.556111", "longitude": "-16.275833", "airport_name": "Ziguinchor", "country_name": "Senegal", "phone_number": null, "timezone": "Africa/Dakar"}, {"id": "6542536", "gmt": "-6", "airport_id": "9762", "iata_code": "ZIH", "city_iata_code": "ZIH", "icao_code": "MMZH", "country_iso2": "MX", "geoname_id": "6299884", "latitude": "17.606783", "longitude": "-101.464066", "airport_name": "Internacional", "country_name": "Mexico", "phone_number": null, "timezone": "America/Mexico_City"}, {"id": "6542556", "gmt": "-6", "airport_id": "9782", "iata_code": "ZJG", "city_iata_code": "ZJG", "icao_code": "CZJG", "country_iso2": "CA", "geoname_id": "7668158", "latitude": "54.519444", "longitude": "-98.04611", "airport_name": "Jenpeg", "country_name": "Canada", "phone_number": null, "timezone": "America/Winnipeg"}, {"id": "6542561", "gmt": "-6", "airport_id": "9787", "iata_code": "ZJN", "city_iata_code": "ZJN", "icao_code": "CZJN", "country_iso2": "CA", "geoname_id": "7668159", "latitude": "52.11667", "longitude": "-101.23333", "airport_name": "Swan River", "country_name": "Canada", "phone_number": null, "timezone": "America/Winnipeg"}, {"id": "6542575", "gmt": "2", "airport_id": "9801", "iata_code": "ZKB", "city_iata_code": "ZKB", "icao_code": "FLKY", "country_iso2": "ZM", "geoname_id": "7730508", "latitude": "-8.522222", "longitude": "30.659721", "airport_name": "Kasaba Bay", "country_name": "Zambia", "phone_number": null, "timezone": "Africa/Lusaka"}, {"id": "6542578", "gmt": "-5", "airport_id": "9804", "iata_code": "ZKE", "city_iata_code": "ZKE", "icao_code": "CZKE", "country_iso2": "CA", "geoname_id": "7668160", "latitude": "52.333332", "longitude": "-81.333336", "airport_name": "Kaschechewan", "country_name": "Canada", "phone_number": null, "timezone": "America/Toronto"}, {"id": "6542580", "gmt": "-4", "airport_id": "9806", "iata_code": "ZKG", "city_iata_code": "ZKG", "icao_code": "CTK6", "country_iso2": "CA", "geoname_id": "7910267", "latitude": "50.18889", "longitude": "-61.291668", "airport_name": "Kegaska", "country_name": "Canada", "phone_number": null, "timezone": "America/Blanc-Sablon"}, {"id": "6542586", "gmt": "1", "airport_id": "9812", "iata_code": "ZKM", "city_iata_code": "ZKM", "icao_code": "FOOS", "country_iso2": "GA", "geoname_id": "7730529", "latitude": "-2.533333", "longitude": "9.75", "airport_name": "Sette Cama", "country_name": "Gabon", "phone_number": null, "timezone": "Africa/Libreville"}, {"id": "6542609", "gmt": "-6", "airport_id": "9835", "iata_code": "ZLO", "city_iata_code": "ZLO", "icao_code": "MMZO", "country_iso2": "MX", "geoname_id": "6299885", "latitude": "19.113333", "longitude": "-104.350555", "airport_name": "Manzanillo", "country_name": "Mexico", "phone_number": null, "timezone": "America/Mexico_City"}, {"id": "6542613", "gmt": "-4", "airport_id": "9839", "iata_code": "ZLT", "city_iata_code": "ZLT", "icao_code": "CTU5", "country_iso2": "CA", "geoname_id": "7730455", "latitude": "50.828056", "longitude": "-58.97601", "airport_name": "La Tabatiere", "country_name": "Canada", "phone_number": null, "timezone": "America/Blanc-Sablon"}, {"id": "6542624", "gmt": "-8", "airport_id": "9850", "iata_code": "ZMH", "city_iata_code": "ZMH", "icao_code": "CZML", "country_iso2": "CA", "geoname_id": "8261033", "latitude": "51.745556", "longitude": "-121.339165", "airport_name": "108 Mile Ranch", "country_name": "Canada", "phone_number": null, "timezone": "America/Vancouver"}, {"id": "6542635", "gmt": "-8", "airport_id": "9861", "iata_code": "ZMT", "city_iata_code": "ZMT", "icao_code": "CZMT", "country_iso2": "CA", "geoname_id": "7668164", "latitude": "54.016666", "longitude": "-132.15", "airport_name": "Masset", "country_name": "Canada", "phone_number": null, "timezone": "America/Vancouver"}, {"id": "6542641", "gmt": "-8", "airport_id": "9867", "iata_code": "ZNA", "city_iata_code": "YCD", "icao_code": "CAC8", "country_iso2": "CA", "geoname_id": "7730439", "latitude": "49.05293", "longitude": "-123.87485", "airport_name": "Nanaimo Harbour", "country_name": "Canada", "phone_number": null, "timezone": "America/Vancouver"}, {"id": "6542644", "gmt": "1", "airport_id": "9870", "iata_code": "ZND", "city_iata_code": "ZND", "icao_code": "DRZR", "country_iso2": "NE", "geoname_id": "6296462", "latitude": "13.779444", "longitude": "8.983056", "airport_name": "Zinder", "country_name": "Niger", "phone_number": null, "timezone": "Africa/Niamey"}, {"id": "6542645", "gmt": "8", "airport_id": "9871", "iata_code": "ZNE", "city_iata_code": "ZNE", "icao_code": "YNWM", "country_iso2": "AU", "geoname_id": "7668751", "latitude": "-23.416517", "longitude": "119.80137", "airport_name": "Newman", "country_name": "Australia", "phone_number": null, "timezone": "Australia/Perth"}, {"id": "6542646", "gmt": "-6", "airport_id": "9872", "iata_code": "ZNG", "city_iata_code": "ZNG", "icao_code": "CZNG", "country_iso2": "CA", "geoname_id": "7730046", "latitude": "53", "longitude": "-97.26667", "airport_name": "Negginan", "country_name": "Canada", "phone_number": null, "timezone": "America/Winnipeg"}, {"id": "6542651", "gmt": "3", "airport_id": "9877", "iata_code": "ZNZ", "city_iata_code": "ZNZ", "icao_code": "HTZA", "country_iso2": "TZ", "geoname_id": "6297372", "latitude": "-6.218466", "longitude": "39.221184", "airport_name": "Kisauni", "country_name": "Tanzania", "phone_number": null, "timezone": "Africa/Dar_es_Salaam"}, {"id": "6542656", "gmt": "-4", "airport_id": "9882", "iata_code": "ZOS", "city_iata_code": "ZOS", "icao_code": "SCJO", "country_iso2": "CL", "geoname_id": "7730165", "latitude": "-40.607777", "longitude": "-73.05556", "airport_name": "Ca\u00f1al Bajo", "country_name": null, "phone_number": null, "timezone": "America/Santiago"}, {"id": "6542659", "gmt": "-6", "airport_id": "9885", "iata_code": "ZPB", "city_iata_code": "ZPB", "icao_code": "CZPB", "country_iso2": "CA", "geoname_id": "7668165", "latitude": "53.890556", "longitude": "-92.195274", "airport_name": "Sachigo Lake", "country_name": "Canada", "phone_number": null, "timezone": "America/Winnipeg"}, {"id": "6542660", "gmt": "-4", "airport_id": "9886", "iata_code": "ZPC", "city_iata_code": "ZPC", "icao_code": "SCPC", "country_iso2": "CL", "geoname_id": "7668446", "latitude": "-39.76389", "longitude": "-71.63333", "airport_name": "Pucon", "country_name": null, "phone_number": null, "timezone": "America/Santiago"}, {"id": "6542664", "gmt": "-5", "airport_id": "9890", "iata_code": "ZPH", "city_iata_code": "ZPH", "icao_code": "KZPH", "country_iso2": "US", "geoname_id": "4178944", "latitude": "28.233334", "longitude": "-82.183334", "airport_name": "Zephyrhills", "country_name": "United States", "phone_number": null, "timezone": "America/New_York"}, {"id": "6542667", "gmt": "-6", "airport_id": "9893", "iata_code": "ZPO", "city_iata_code": "ZPO", "icao_code": "CZPO", "country_iso2": "CA", "geoname_id": "8260884", "latitude": "55.516666", "longitude": "-106.583336", "airport_name": "Pine House", "country_name": "Canada", "phone_number": null, "timezone": "America/Regina"}, {"id": "6542670", "gmt": "12", "airport_id": "9896", "iata_code": "ZQN", "city_iata_code": "ZQN", "icao_code": "NZQN", "country_iso2": "NZ", "geoname_id": "6206225", "latitude": "-45.022038", "longitude": "168.7391", "airport_name": "Queenstown", "country_name": "New Zealand", "phone_number": null, "timezone": "Pacific/Auckland"}, {"id": "6542682", "gmt": "1", "airport_id": "9908", "iata_code": "ZRH", "city_iata_code": "ZRH", "icao_code": "LSZH", "country_iso2": "CH", "geoname_id": "6299722", "latitude": "47.450603", "longitude": "8.561746", "airport_name": "Zurich", "country_name": "Switzerland", "phone_number": "+41 (0) 43 81", "timezone": "Europe/Zurich"}, {"id": "6542684", "gmt": "-6", "airport_id": "9910", "iata_code": "ZRJ", "city_iata_code": "ZRJ", "icao_code": "CZRJ", "country_iso2": "CA", "geoname_id": "7730047", "latitude": "52.95", "longitude": "-91.316666", "airport_name": "Round Lake", "country_name": "Canada", "phone_number": null, "timezone": "America/Winnipeg"}, {"id": "6542700", "gmt": "-5", "airport_id": "9926", "iata_code": "ZSA", "city_iata_code": "ZSA", "icao_code": "MYSM", "country_iso2": "BS", "geoname_id": "6299942", "latitude": "24.06", "longitude": "-74.53306", "airport_name": "San Salvador", "country_name": "Bahamas", "phone_number": null, "timezone": "America/Nassau"}, {"id": "6542704", "gmt": "4", "airport_id": "9930", "iata_code": "ZSE", "city_iata_code": "ZSE", "icao_code": "KZSE", "country_iso2": "RE", "geoname_id": "6297035", "latitude": "-21.333332", "longitude": "55.483334", "airport_name": "St Pierre dela Reunion", "country_name": "Reunion", "phone_number": null, "timezone": "Indian/Reunion"}, {"id": "6542708", "gmt": "-6", "airport_id": "9934", "iata_code": "ZSJ", "city_iata_code": "ZSJ", "icao_code": "CZSJ", "country_iso2": "CA", "geoname_id": "7668166", "latitude": "53.033333", "longitude": "-93.23333", "airport_name": "Sandy Lake", "country_name": "Canada", "phone_number": null, "timezone": "America/Winnipeg"}, {"id": "6542717", "gmt": null, "airport_id": "9943", "iata_code": "ZSS", "city_iata_code": "ZSS", "icao_code": "DISS", "country_iso2": "CI", "geoname_id": "6296443", "latitude": "4.924444", "longitude": "-6.135556", "airport_name": "Sassandra", "country_name": null, "phone_number": null, "timezone": "Africa/Abidjan"}, {"id": "6542718", "gmt": "-8", "airport_id": "9944", "iata_code": "ZST", "city_iata_code": "ZST", "icao_code": "CZST", "country_iso2": "CA", "geoname_id": "6296357", "latitude": "55.933334", "longitude": "-129.98334", "airport_name": "Stewart", "country_name": "Canada", "phone_number": null, "timezone": "America/Vancouver"}, {"id": "6542721", "gmt": "-8", "airport_id": "9947", "iata_code": "ZSW", "city_iata_code": "YPR", "icao_code": "CZSW", "country_iso2": "CA", "geoname_id": "7668167", "latitude": "54.333332", "longitude": "-130.28334", "airport_name": "Seal Cove", "country_name": "Canada", "phone_number": null, "timezone": "America/Vancouver"}, {"id": "6542725", "gmt": "-10", "airport_id": "9951", "iata_code": "ZTA", "city_iata_code": "ZTA", "icao_code": "NTGY", "country_iso2": "PF", "geoname_id": "7730701", "latitude": "-20.816668", "longitude": "-138.5", "airport_name": "Tureira", "country_name": "French Polynesia", "phone_number": null, "timezone": "Pacific/Tahiti"}, {"id": "6542726", "gmt": "-4", "airport_id": "9952", "iata_code": "ZTB", "city_iata_code": "ZTB", "icao_code": "CTB6", "country_iso2": "CA", "geoname_id": "7730454", "latitude": "50.716667", "longitude": "-59.333332", "airport_name": "Tete-a-La Baleine", "country_name": "Canada", "phone_number": null, "timezone": "America/Blanc-Sablon"}, {"id": "6542732", "gmt": "2", "airport_id": "9958", "iata_code": "ZTH", "city_iata_code": "ZTH", "icao_code": "LGZA", "country_iso2": "GR", "geoname_id": "6299516", "latitude": "37.755833", "longitude": "20.888332", "airport_name": "Zakinthos International Airport", "country_name": "Greece", "phone_number": null, "timezone": "Europe/Athens"}, {"id": "6542737", "gmt": "-6", "airport_id": "9963", "iata_code": "ZTM", "city_iata_code": "ZTM", "icao_code": "CZTM", "country_iso2": "CA", "geoname_id": "7668168", "latitude": "55.858665", "longitude": "-92.0864", "airport_name": "Shamattawa", "country_name": "Canada", "phone_number": null, "timezone": "America/Winnipeg"}, {"id": "6542740", "gmt": "2", "airport_id": "9966", "iata_code": "ZTR", "city_iata_code": "ZTR", "icao_code": "UKKV", "country_iso2": "UA", "geoname_id": "8299599", "latitude": "50.25", "longitude": "28.65", "airport_name": "Zhitomir Airport", "country_name": "Ukraine", "phone_number": null, "timezone": "Europe/Kiev"}, {"id": "6542743", "gmt": "4", "airport_id": "9969", "iata_code": "ZTU", "city_iata_code": "ZTU", "icao_code": "UBBY", "country_iso2": "AZ", "geoname_id": "8349590", "latitude": "41.56166", "longitude": "46.664787", "airport_name": "Zaqatala", "country_name": "Azerbaijan", "phone_number": null, "timezone": "Asia/Baku"}, {"id": "6542748", "gmt": "-5", "airport_id": "9974", "iata_code": "ZUA", "city_iata_code": "UCA", "icao_code": "ZUAL", "country_iso2": "US", "geoname_id": "11184639", "latitude": "43.10463", "longitude": "-75.22307", "airport_name": "Utica N Railway", "country_name": "United States", "phone_number": null, "timezone": "America/New_York"}, {"id": "6542749", "gmt": "-6", "airport_id": "9975", "iata_code": "ZUC", "city_iata_code": "ZUC", "icao_code": "CZUC", "country_iso2": "CA", "geoname_id": "7668169", "latitude": "49.5", "longitude": "-91.833336", "airport_name": "Ignace", "country_name": "Canada", "phone_number": null, "timezone": "America/Winnipeg"}, {"id": "6542750", "gmt": "-4", "airport_id": "9976", "iata_code": "ZUD", "city_iata_code": "ZUD", "icao_code": "SCAC", "country_iso2": "CL", "geoname_id": "6453412", "latitude": "-42", "longitude": "-73.833336", "airport_name": "Ancud", "country_name": null, "phone_number": null, "timezone": "America/Santiago"}, {"id": "6542752", "gmt": "8", "airport_id": "9978", "iata_code": "ZUH", "city_iata_code": "ZUH", "icao_code": "ZGUH", "country_iso2": "CN", "geoname_id": "7668792", "latitude": "22.011787", "longitude": "113.3706", "airport_name": "Zhuhai Airport", "country_name": "China", "phone_number": null, "timezone": "Asia/Shanghai"}, {"id": "6542755", "gmt": "3", "airport_id": "9981", "iata_code": "ZUL", "city_iata_code": "ZUL", "icao_code": "OEZL", "country_iso2": "SA", "geoname_id": "7730742", "latitude": "26.25", "longitude": "44.833332", "airport_name": "Zilfi", "country_name": "Saudi Arabia", "phone_number": null, "timezone": "Asia/Riyadh"}, {"id": "6542756", "gmt": "-4", "airport_id": "9982", "iata_code": "ZUM", "city_iata_code": "ZUM", "icao_code": "CZUM", "country_iso2": "CA", "geoname_id": "6957320", "latitude": "53.56278", "longitude": "-64.10917", "airport_name": "Churchill Falls", "country_name": "Canada", "phone_number": null, "timezone": "America/Goose_Bay"}, {"id": "6542766", "gmt": "7", "airport_id": "9992", "iata_code": "ZVK", "city_iata_code": "ZVK", "icao_code": "VLSK", "country_iso2": "LA", "geoname_id": "6301109", "latitude": "16.553612", "longitude": "104.7625", "airport_name": "Savannakhet", "country_name": "Laos", "phone_number": null, "timezone": "Asia/Vientiane"}, {"id": "6542769", "gmt": "3", "airport_id": "9995", "iata_code": "ZWA", "city_iata_code": "ZWA", "icao_code": "FMND", "country_iso2": "MG", "geoname_id": "6297044", "latitude": "-14.65", "longitude": "49.61667", "airport_name": "Andapa", "country_name": "Madagascar", "phone_number": null, "timezone": "Indian/Antananarivo"}, {"id": "6542775", "gmt": "-5", "airport_id": "10001", "iata_code": "ZWI", "city_iata_code": "ILG", "icao_code": "EDBI", "country_iso2": "US", "geoname_id": null, "latitude": "50.730556", "longitude": "12.544444", "airport_name": "Wilmington Railway", "country_name": "United States", "phone_number": null, "timezone": "America/New_York"}, {"id": "6542777", "gmt": "-6", "airport_id": "10003", "iata_code": "ZWL", "city_iata_code": "ZWL", "icao_code": "CZWL", "country_iso2": "CA", "geoname_id": "7668170", "latitude": "58.1", "longitude": "-103.183334", "airport_name": "Wollaston Lake", "country_name": "Canada", "phone_number": null, "timezone": "America/Regina"}, {"id": "6542786", "gmt": "-5", "airport_id": "10012", "iata_code": "ZWW", "city_iata_code": "PHF", "icao_code": "ZWWW", "country_iso2": "US", "geoname_id": "10858958", "latitude": "37.0228", "longitude": "-76.4519", "airport_name": "Newport News Railway", "country_name": "United States", "phone_number": null, "timezone": "America/New_York"}, {"id": "6542804", "gmt": "8", "airport_id": "10030", "iata_code": "ZYI", "city_iata_code": "ZYI", "icao_code": "ZUZY", "country_iso2": "CN", "geoname_id": "8260946", "latitude": "27.666668", "longitude": "106.833336", "airport_name": "Zunyi", "country_name": "China", "phone_number": null, "timezone": "Asia/Shanghai"}, {"id": "6542807", "gmt": "6", "airport_id": "10033", "iata_code": "ZYL", "city_iata_code": "ZYL", "icao_code": "VGSY", "country_iso2": "BD", "geoname_id": "6301086", "latitude": "24.957598", "longitude": "91.870476", "airport_name": "Osmani International", "country_name": "Bangladesh", "phone_number": null, "timezone": "Asia/Dhaka"}, {"id": "6542824", "gmt": "2", "airport_id": "10050", "iata_code": "ZZU", "city_iata_code": "ZZU", "icao_code": "FWUU", "country_iso2": "MW", "geoname_id": "6297127", "latitude": "-11.442778", "longitude": "34.01278", "airport_name": "Mzuzu", "country_name": "Malawi", "phone_number": null, "timezone": "Africa/Blantyre"}, {"id": "6542825", "gmt": "-5", "airport_id": "10051", "iata_code": "ZZV", "city_iata_code": "ZZV", "icao_code": "KZZV", "country_iso2": "US", "geoname_id": "4528929", "latitude": "39.933334", "longitude": "-82.01667", "airport_name": "Zanesville", "country_name": "United States", "phone_number": null, "timezone": "America/New_York"}, {"id": "6542826", "gmt": "5:30", "airport_id": "10052", "iata_code": "CNN", "city_iata_code": null, "icao_code": "VOKN", "country_iso2": "IN", "geoname_id": null, "latitude": "11.915858", "longitude": "75.55094", "airport_name": "Kannur International Airport", "country_name": "India", "phone_number": null, "timezone": "Asia/Kolkata"}, {"id": "6542827", "gmt": null, "airport_id": "10053", "iata_code": "PKX", "city_iata_code": "PEK", "icao_code": "ZBAD", "country_iso2": "CN", "geoname_id": null, "latitude": "39.5092", "longitude": "116.411", "airport_name": "Beijing Daxing International Airport", "country_name": "Beijing", "phone_number": "010-96158", "timezone": "+8"}, {"id": "6542828", "gmt": "+1", "airport_id": "10054", "iata_code": "BER", "city_iata_code": "SXF", "icao_code": "EDDB", "country_iso2": "DE", "geoname_id": null, "latitude": "52.3667", "longitude": "13.502", "airport_name": "Berlin Brandenburg Airport", "country_name": "Berlin", "phone_number": "+49 30 6091 6091 0", "timezone": "Europe/Berlin"}, {"id": "6542829", "gmt": "8", "airport_id": "10341", "iata_code": "AAP", "city_iata_code": null, "icao_code": "WALS", "country_iso2": "ID", "geoname_id": "11749267", "latitude": "-0.374448", "longitude": "117.249392", "airport_name": "Aji Pangeran Tumenggung Pranoto International Airport", "country_name": "Indonesia", "phone_number": null, "timezone": null}, {"id": "6542830", "gmt": "8", "airport_id": "10342", "iata_code": "AHJ", "city_iata_code": null, "icao_code": "ZUHY", "country_iso2": "CN", "geoname_id": "8521741", "latitude": "32.53154", "longitude": "102.35224", "airport_name": "Aba Hongyuan Airport", "country_name": "China", "phone_number": null, "timezone": null}, {"id": "6542831", "gmt": "8", "airport_id": "10343", "iata_code": "AXF", "city_iata_code": null, "icao_code": "ZBAL", "country_iso2": "MN", "geoname_id": null, "latitude": "38.74831", "longitude": "105.58858", "airport_name": "Alxa Left Banner Bayanhot Airport", "country_name": "Mongolia", "phone_number": null, "timezone": null}, {"id": "6542832", "gmt": "9", "airport_id": "10344", "iata_code": "AXJ", "city_iata_code": null, "icao_code": "RJDA", "country_iso2": "JP", "geoname_id": "8520859", "latitude": "32.482498", "longitude": "130.158997", "airport_name": "Amakusa Airfield\r\n", "country_name": "Japan", "phone_number": null, "timezone": null}, {"id": "6542833", "gmt": "10", "airport_id": "10345", "iata_code": "BBL", "city_iata_code": null, "icao_code": "YLLE", "country_iso2": "AU", "geoname_id": "8533832", "latitude": "-27.405633", "longitude": "141.809458", "airport_name": "Ballera Airport\r\n", "country_name": "Australia", "phone_number": null, "timezone": null}, {"id": "6542834", "gmt": "8", "airport_id": "10346", "iata_code": "BFJ", "city_iata_code": null, "icao_code": "ZUBJ", "country_iso2": "CN", "geoname_id": "8426217", "latitude": "27.267066", "longitude": "105.472097", "airport_name": "Bijie Feixiong AirportYCV\r\n", "country_name": "China", "phone_number": null, "timezone": null}, {"id": "6542835", "gmt": "5", "airport_id": "10347", "iata_code": "BKN", "city_iata_code": null, "icao_code": "UT1H", "country_iso2": null, "geoname_id": "8581504", "latitude": "39.481389", "longitude": "54.362778", "airport_name": "Balkanabat Airport", "country_name": "Turkmenistan", "phone_number": null, "timezone": null}, {"id": "6542836", "gmt": "8", "airport_id": "10348", "iata_code": "BPN", "city_iata_code": null, "icao_code": "WALL", "country_iso2": "ID", "geoname_id": "7668668", "latitude": "-1.2682700157", "longitude": "116.893997192", "airport_name": "Sultan Aji Muhamad Sulaiman Airport\r\n", "country_name": "Indonesia", "phone_number": null, "timezone": null}, {"id": "6542837", "gmt": "6", "airport_id": "10349", "iata_code": "BUT", "city_iata_code": null, "icao_code": "VQBT", "country_iso2": "BT", "geoname_id": "8531844", "latitude": "27.5622", "longitude": "90.7471", "airport_name": "Bathpalathang Airport\r\n", "country_name": "Bhutan", "phone_number": null, "timezone": null}, {"id": "6542838", "gmt": "7", "airport_id": "10350", "iata_code": "BUU", "city_iata_code": null, "icao_code": "WIPI", "country_iso2": "ID", "geoname_id": "11951798", "latitude": "-1.1278", "longitude": "102.135", "airport_name": "Muara Bungo Airport\r\n", "country_name": "Indonesia", "phone_number": null, "timezone": null}, {"id": "6542840", "gmt": "7", "airport_id": "10352", "iata_code": "BWX", "city_iata_code": null, "icao_code": "WARB", "country_iso2": "ID", "geoname_id": "8531789", "latitude": "-8.31015", "longitude": "114.3401", "airport_name": "Blimbingsari Airport\r\n", "country_name": "Indonesia", "phone_number": null, "timezone": null}, {"id": "6542841", "gmt": "8", "airport_id": "10353", "iata_code": "BYP", "city_iata_code": null, "icao_code": "YBRY", "country_iso2": "AU", "geoname_id": "8555592", "latitude": "-22.6739006042", "longitude": "119.1660003662", "airport_name": "Barimunya Airport\r\n", "country_name": "Australia", "phone_number": null, "timezone": null}, {"id": "6542842", "gmt": "8", "airport_id": "10354", "iata_code": "BZX", "city_iata_code": null, "icao_code": "ZUBZ", "country_iso2": "CN", "geoname_id": "11995099", "latitude": "31.738", "longitude": "106.64513", "airport_name": "Bazhong Enyang Airport", "country_name": "China", "phone_number": null, "timezone": null}, {"id": "6542843", "gmt": "-5", "airport_id": "10355", "iata_code": "CCC", "city_iata_code": null, "icao_code": "MUCC", "country_iso2": "CU", "geoname_id": "8520847", "latitude": "22.4610004425", "longitude": "-78.3283996582", "airport_name": "Jardines Del Rey Airport\r\n", "country_name": "Cuba", "phone_number": null, "timezone": null}, {"id": "6542845", "gmt": "8", "airport_id": "10357", "iata_code": "CJF", "city_iata_code": null, "icao_code": "YCWA", "country_iso2": "AU", "geoname_id": "8555599", "latitude": "-22.9666996002", "longitude": "118.81300354", "airport_name": "Coondewanna Airport\r\n", "country_name": "Australia", "phone_number": null, "timezone": null}, {"id": "6542846", "gmt": "1", "airport_id": "10358", "iata_code": "CQM", "city_iata_code": null, "icao_code": "LERL", "country_iso2": "ES", "geoname_id": "6452899", "latitude": "38.8563888889", "longitude": "-3.97", "airport_name": "Ciudad Real Central Airport\r\n", "country_name": "Spain", "phone_number": null, "timezone": null}, {"id": "6542847", "gmt": "-5", "airport_id": "10359", "iata_code": "CSG", "city_iata_code": null, "icao_code": "KCSG", "country_iso2": "US", "geoname_id": "4188990", "latitude": "32.5163002014", "longitude": "-84.9389038086", "airport_name": "Columbus Metropolitan Airport\r\n", "country_name": "United States\r\n", "phone_number": null, "timezone": null}, {"id": "6542848", "gmt": "8", "airport_id": "10360", "iata_code": "CWJ", "city_iata_code": null, "icao_code": "ZPCW", "country_iso2": "CN", "geoname_id": "11184550", "latitude": "23.273889", "longitude": "99.373611", "airport_name": "Cangyuan Washan Airport\r\n", "country_name": "China", "phone_number": null, "timezone": null}, {"id": "6542849", "gmt": "8", "airport_id": "10361", "iata_code": "DBC", "city_iata_code": null, "icao_code": "ZYBA", "country_iso2": "CN", "geoname_id": "11101506", "latitude": "45.505278", "longitude": "123.019722", "airport_name": "Baicheng Chang'an Airport\r\n", "country_name": "China", "phone_number": null, "timezone": null}, {"id": "6542850", "gmt": "5.3", "airport_id": "10362", "iata_code": "DBR", "city_iata_code": null, "icao_code": "VE89", "country_iso2": "IN", "geoname_id": null, "latitude": "26.1936", "longitude": "85.919403", "airport_name": "Darbhanga Airport", "country_name": "India", "phone_number": null, "timezone": null}, {"id": "6542851", "gmt": "5", "airport_id": "10363", "iata_code": "DDD", "city_iata_code": null, "icao_code": "VRMU", "country_iso2": "MV", "geoname_id": "11524617", "latitude": "2.666075", "longitude": "72.887118", "airport_name": "Dhaalu Airport", "country_name": "Maldives", "phone_number": null, "timezone": null}, {"id": "6542852", "gmt": "9", "airport_id": "10364", "iata_code": "DEX", "city_iata_code": null, "icao_code": "WAVD", "country_iso2": "ID", "geoname_id": null, "latitude": "-4.8557", "longitude": "139.482006", "airport_name": "Nop Goliat Airport\r\n", "country_name": "Indonesia", "phone_number": null, "timezone": null}, {"id": "6542853", "gmt": null, "airport_id": "10365", "iata_code": "DGX", "city_iata_code": null, "icao_code": "EGSY", "country_iso2": "GB", "geoname_id": null, "latitude": null, "longitude": null, "airport_name": "St. Athan Airport", "country_name": "United Kingdom", "phone_number": null, "timezone": null}, {"id": "6542854", "gmt": "4", "airport_id": "10366", "iata_code": "DQM", "city_iata_code": null, "icao_code": "OODQ", "country_iso2": "OM", "geoname_id": "8394117", "latitude": "19.501944", "longitude": "57.634167", "airport_name": "Duqm International Airport\r\n", "country_name": "Oman", "phone_number": null, "timezone": null}, {"id": "6542855", "gmt": null, "airport_id": "10367", "iata_code": "DSS", "city_iata_code": null, "icao_code": "GOBD", "country_iso2": "SN", "geoname_id": "7732976", "latitude": "14.67", "longitude": "-17.073333", "airport_name": "Blaise Diagne International Airport\r\n", "country_name": "Senegal", "phone_number": null, "timezone": null}, {"id": "6542856", "gmt": "7", "airport_id": "10368", "iata_code": "DTB", "city_iata_code": null, "icao_code": "WIMN", "country_iso2": "ID", "geoname_id": "8531809", "latitude": "2.25973", "longitude": "98.991898", "airport_name": "Silangit Airport\r\n", "country_name": "Indonesia", "phone_number": null, "timezone": null}, {"id": "6542857", "gmt": "8", "airport_id": "10369", "iata_code": "DTU", "city_iata_code": null, "icao_code": "ZYDU", "country_iso2": "CN", "geoname_id": "11128430", "latitude": "48.445", "longitude": "126.133", "airport_name": "Wudalianchi Dedu Airport\r\n", "country_name": "China", "phone_number": null, "timezone": null}, {"id": "6542858", "gmt": "-6", "airport_id": "10370", "iata_code": "DXE", "city_iata_code": null, "icao_code": "KMBO", "country_iso2": "US", "geoname_id": "4419655", "latitude": null, "longitude": null, "airport_name": "Bruce Campbell Field", "country_name": "United States\r\n", "phone_number": null, "timezone": null}, {"id": "6542859", "gmt": "-6", "airport_id": "10371", "iata_code": "EDC", "city_iata_code": null, "icao_code": "KEDC", "country_iso2": "US", "geoname_id": null, "latitude": "30.3974931", "longitude": "-97.5663935", "airport_name": "Austin Executive Airport ", "country_name": "United States", "phone_number": null, "timezone": null}, {"id": "6542860", "gmt": "2", "airport_id": "10372", "iata_code": "ETM", "city_iata_code": null, "icao_code": "LLER", "country_iso2": "IL", "geoname_id": "11153003", "latitude": "29.723694", "longitude": "35.011416", "airport_name": "Ramon Airport\r\n", "country_name": "Israel", "phone_number": null, "timezone": null}, {"id": "6542861", "gmt": "7", "airport_id": "10373", "iata_code": "FLZ", "city_iata_code": null, "icao_code": "WIMS\r\n", "country_iso2": "ID", "geoname_id": "6301238", "latitude": "1.55594", "longitude": "98.888901", "airport_name": "Dr Ferdinand Lumban Tobing Airport\r\n", "country_name": "Indonesia\r\n", "phone_number": null, "timezone": null}, {"id": "6542862", "gmt": "5", "airport_id": "10374", "iata_code": "FND", "city_iata_code": null, "icao_code": "-", "country_iso2": "MV", "geoname_id": "12104814", "latitude": "6.1611", "longitude": "73.2872", "airport_name": "Funadhoo Airport\r\n", "country_name": "Maldives", "phone_number": null, "timezone": null}, {"id": "6542863", "gmt": "1", "airport_id": "10375", "iata_code": "FRF", "city_iata_code": null, "icao_code": "EDOL", "country_iso2": "DE", "geoname_id": null, "latitude": "52.040333", "longitude": "11.202833", "airport_name": "Rhein-Main AFB airport\r\n", "country_name": "Germany", "phone_number": null, "timezone": null}, {"id": "6542864", "gmt": "8", "airport_id": "10376", "iata_code": "FYN", "city_iata_code": null, "icao_code": "ZWFY", "country_iso2": "CN", "geoname_id": "11127692", "latitude": "46.804169", "longitude": "89.512006", "airport_name": "Fuyun Koktokay Airport\r\n", "country_name": "China", "phone_number": null, "timezone": null}, {"id": "6542865", "gmt": "8", "airport_id": "10377", "iata_code": "GBW", "city_iata_code": null, "icao_code": "YGIA", "country_iso2": "AU", "geoname_id": null, "latitude": "-22.5812", "longitude": "120.03553", "airport_name": "Ginbata Airport", "country_name": "Australia", "phone_number": null, "timezone": null}, {"id": "6542866", "gmt": "-3", "airport_id": "10378", "iata_code": "GDR", "city_iata_code": null, "icao_code": "SDAG", "country_iso2": "BR", "geoname_id": null, "latitude": "-22.97527", "longitude": "-44.30722", "airport_name": "Angra dos Reis Airport", "country_name": "Brazil", "phone_number": null, "timezone": null}, {"id": "6542867", "gmt": "-4", "airport_id": "10379", "iata_code": "GGB", "city_iata_code": null, "icao_code": "SWHP", "country_iso2": null, "geoname_id": "12105153", "latitude": "-14.02531", "longitude": "-52.15432", "airport_name": "\u00c1gua Boa Airport\r\n", "country_name": "Brazil", "phone_number": null, "timezone": null}, {"id": "6542868", "gmt": "1", "airport_id": "10380", "iata_code": "GHF", "city_iata_code": null, "icao_code": "ETEU", "country_iso2": "DE", "geoname_id": null, "latitude": "49.6481018066", "longitude": "9.9664897919", "airport_name": "Giebelstadt Army Air Field", "country_name": "Germany", "phone_number": null, "timezone": null}, {"id": "6542869", "gmt": "5", "airport_id": "10381", "iata_code": "GKK", "city_iata_code": null, "icao_code": "VRMO", "country_iso2": "MV", "geoname_id": "8411012", "latitude": "0.7324", "longitude": "73.4336", "airport_name": "Kooddoo Airport", "country_name": "Maldives", "phone_number": null, "timezone": null}, {"id": "6542870", "gmt": "2", "airport_id": "10382", "iata_code": "GML", "city_iata_code": null, "icao_code": "UKKM", "country_iso2": "UA", "geoname_id": "6300961", "latitude": "50.6035003", "longitude": "30.1919", "airport_name": "Gostomel Airport", "country_name": "Ukraine", "phone_number": null, "timezone": null}, {"id": "6542871", "gmt": "8", "airport_id": "10383", "iata_code": "GMQ", "city_iata_code": null, "icao_code": "ZLGL", "country_iso2": "CN", "geoname_id": "11185238", "latitude": "34.418066", "longitude": "100.301144", "airport_name": "Golog Maqin Airport", "country_name": "China", "phone_number": null, "timezone": null}]}