{"pagination": {"offset": 5600, "limit": 100, "count": 100, "total": 6685}, "data": [{"id": "6540881", "gmt": "3", "airport_id": "8107", "iata_code": "UKR", "city_iata_code": "UKR", "icao_code": "OYMK", "country_iso2": "YE", "geoname_id": "6300140", "latitude": "13.933333", "longitude": "45.683334", "airport_name": "Mukeiras", "country_name": "Yemen", "phone_number": null, "timezone": "Asia/Aden"}, {"id": "6540883", "gmt": "-5", "airport_id": "8109", "iata_code": "UKT", "city_iata_code": "UKT", "icao_code": "KUKT", "country_iso2": "US", "geoname_id": "5207382", "latitude": "40.433334", "longitude": "-75.35", "airport_name": "Upper Bucks", "country_name": "United States", "phone_number": null, "timezone": "America/New_York"}, {"id": "6540885", "gmt": "8", "airport_id": "8111", "iata_code": "UKX", "city_iata_code": "UKX", "icao_code": "UITT", "country_iso2": "RU", "geoname_id": "7668506", "latitude": "56.85", "longitude": "105.73333", "airport_name": "Ust-Kut", "country_name": "Russia", "phone_number": null, "timezone": "Asia/Irkutsk"}, {"id": "6540887", "gmt": "-3", "airport_id": "8113", "iata_code": "ULA", "city_iata_code": "ULA", "icao_code": "SAWJ", "country_iso2": "AR", "geoname_id": "6300575", "latitude": "-49.316666", "longitude": "-67.666664", "airport_name": "San Julian", "country_name": "Argentina", "phone_number": null, "timezone": "America/Argentina/Rio_Gallegos"}, {"id": "6540888", "gmt": "11", "airport_id": "8114", "iata_code": "ULB", "city_iata_code": "ULB", "icao_code": "NVSU", "country_iso2": "VU", "geoname_id": "7730717", "latitude": "-16.416668", "longitude": "168.33333", "airport_name": "Ulei", "country_name": "Vanuatu", "phone_number": null, "timezone": "Pacific/Efate"}, {"id": "6540889", "gmt": "2", "airport_id": "8115", "iata_code": "ULD", "city_iata_code": "ULD", "icao_code": "FAUL", "country_iso2": "ZA", "geoname_id": "6296933", "latitude": "-28.283333", "longitude": "31.433332", "airport_name": "Ulundi", "country_name": "South Africa", "phone_number": null, "timezone": "Africa/Johannesburg"}, {"id": "6540891", "gmt": "7", "airport_id": "8117", "iata_code": "ULG", "city_iata_code": "ULG", "icao_code": "ZMUL", "country_iso2": "MN", "geoname_id": "7731582", "latitude": "48.966667", "longitude": "89.96667", "airport_name": "Ulgit", "country_name": "Mongolia", "phone_number": null, "timezone": "Asia/Hovd"}, {"id": "6540892", "gmt": "3", "airport_id": "8118", "iata_code": "ULH", "city_iata_code": "ULH", "icao_code": "OEAO", "country_iso2": "SA", "geoname_id": "8298674", "latitude": "26.616667", "longitude": "37.866665", "airport_name": "Majeed Bin Abdulaziz", "country_name": "Saudi Arabia", "phone_number": null, "timezone": "Asia/Riyadh"}, {"id": "6540894", "gmt": "9", "airport_id": "8120", "iata_code": "ULK", "city_iata_code": "ULK", "icao_code": "UERL", "country_iso2": "RU", "geoname_id": "8260851", "latitude": "60.72248", "longitude": "114.83152", "airport_name": "Lensk", "country_name": "Russia", "phone_number": null, "timezone": "Asia/Yakutsk"}, {"id": "6540896", "gmt": "-6", "airport_id": "8122", "iata_code": "ULM", "city_iata_code": "ULM", "icao_code": "KULM", "country_iso2": "US", "geoname_id": "5039182", "latitude": "44.32139", "longitude": "-94.50056", "airport_name": "New Ulm", "country_name": "United States", "phone_number": null, "timezone": "America/Chicago"}, {"id": "6540897", "gmt": "8", "airport_id": "8123", "iata_code": "ULN", "city_iata_code": "ULN", "icao_code": "ZMUB", "country_iso2": "MN", "geoname_id": "6301377", "latitude": "47.85275", "longitude": "106.76327", "airport_name": "Chinggis Khaan International", "country_name": "Mongolia", "phone_number": null, "timezone": "Asia/Ulaanbaatar"}, {"id": "6540898", "gmt": "7", "airport_id": "8124", "iata_code": "ULO", "city_iata_code": "ULO", "icao_code": "ZMUG", "country_iso2": "MN", "geoname_id": "8260917", "latitude": "49.983334", "longitude": "92.066666", "airport_name": "Ulaangom", "country_name": "Mongolia", "phone_number": null, "timezone": "Asia/Hovd"}, {"id": "6540899", "gmt": "10", "airport_id": "8125", "iata_code": "ULP", "city_iata_code": "ULP", "icao_code": "YQLP", "country_iso2": "AU", "geoname_id": "7730273", "latitude": "-26.633333", "longitude": "144.3", "airport_name": "Quilpie", "country_name": "Australia", "phone_number": null, "timezone": "Australia/Brisbane"}, {"id": "6540900", "gmt": "-5", "airport_id": "8126", "iata_code": "ULQ", "city_iata_code": "ULQ", "icao_code": "SKUL", "country_iso2": "CO", "geoname_id": "7730174", "latitude": "4.097222", "longitude": "-76.229164", "airport_name": "Farfan", "country_name": "Colombia", "phone_number": null, "timezone": "America/Bogota"}, {"id": "6540902", "gmt": "3", "airport_id": "8128", "iata_code": "ULU", "city_iata_code": "ULU", "icao_code": "HUGU", "country_iso2": "UG", "geoname_id": "6297376", "latitude": "2.783333", "longitude": "32.3", "airport_name": "Gulu", "country_name": "Uganda", "phone_number": null, "timezone": "Africa/Kampala"}, {"id": "6540903", "gmt": "3", "airport_id": "8129", "iata_code": "ULV", "city_iata_code": "ULY", "icao_code": "UWLL", "country_iso2": "RU", "geoname_id": null, "latitude": "54.268333", "longitude": "48.226665", "airport_name": "Baratayevka", "country_name": "Russia", "phone_number": null, "timezone": "Europe/Moscow"}, {"id": "6540905", "gmt": "3", "airport_id": "8131", "iata_code": "ULY", "city_iata_code": "ULY", "icao_code": "UWLW", "country_iso2": "RU", "geoname_id": "6301023", "latitude": "54.266666", "longitude": "48.216667", "airport_name": "Vostochny", "country_name": "Russia", "phone_number": null, "timezone": "Europe/Moscow"}, {"id": "6540910", "gmt": "-3", "airport_id": "8136", "iata_code": "UMD", "city_iata_code": "UMD", "icao_code": "BGUM", "country_iso2": "GL", "geoname_id": "3426193", "latitude": "70.66889", "longitude": "-52.11778", "airport_name": "Uummannaq", "country_name": "Greenland", "phone_number": null, "timezone": "America/Godthab"}, {"id": "6540911", "gmt": "1", "airport_id": "8137", "iata_code": "UME", "city_iata_code": "UME", "icao_code": "ESNU", "country_iso2": "SE", "geoname_id": "6296808", "latitude": "63.79333", "longitude": "20.28954", "airport_name": "Umea", "country_name": "Sweden", "phone_number": null, "timezone": "Europe/Stockholm"}, {"id": "6540912", "gmt": "-5", "airport_id": "8138", "iata_code": "UMI", "city_iata_code": "UMI", "icao_code": "SPIL", "country_iso2": "PE", "geoname_id": "7731586", "latitude": "-13.25", "longitude": "-70.666664", "airport_name": "Quincemil", "country_name": "Peru", "phone_number": null, "timezone": "America/Lima"}, {"id": "6540913", "gmt": "-9", "airport_id": "8139", "iata_code": "UMM", "city_iata_code": "UMM", "icao_code": "PAST", "country_iso2": "US", "geoname_id": "5875396", "latitude": "63.316666", "longitude": "-149.31667", "airport_name": "Summit", "country_name": "United States", "phone_number": null, "timezone": "America/Anchorage"}, {"id": "6540914", "gmt": "9.30", "airport_id": "8140", "iata_code": "UMR", "city_iata_code": "UMR", "icao_code": "YPWR", "country_iso2": "AU", "geoname_id": "6301339", "latitude": "-31.15", "longitude": "136.81667", "airport_name": "Woomera", "country_name": "Australia", "phone_number": null, "timezone": "Australia/Adelaide"}, {"id": "6540915", "gmt": "-9", "airport_id": "8141", "iata_code": "UMT", "city_iata_code": "UMT", "icao_code": "PAUM", "country_iso2": "US", "geoname_id": "5877174", "latitude": "69.416664", "longitude": "-152.33333", "airport_name": "Umiat", "country_name": "United States", "phone_number": null, "timezone": "America/Anchorage"}, {"id": "6540916", "gmt": "-3", "airport_id": "8142", "iata_code": "UMU", "city_iata_code": "UMU", "icao_code": "SSUM", "country_iso2": "BR", "geoname_id": "7731587", "latitude": "-23.798332", "longitude": "-53.31333", "airport_name": "Ernesto Geisel", "country_name": "Brazil", "phone_number": null, "timezone": "America/Sao_Paulo"}, {"id": "6540917", "gmt": "2", "airport_id": "8143", "iata_code": "UMY", "city_iata_code": "UMY", "icao_code": "UKHS", "country_iso2": "UA", "geoname_id": "7668510", "latitude": "50.933334", "longitude": "34.783333", "airport_name": "Sumy", "country_name": "Ukraine", "phone_number": null, "timezone": "Europe/Kiev"}, {"id": "6540918", "gmt": "-3", "airport_id": "8144", "iata_code": "UNA", "city_iata_code": "UNA", "icao_code": "SBTC", "country_iso2": "BR", "geoname_id": "7730782", "latitude": "-15.353333", "longitude": "-38.997223", "airport_name": "Una", "country_name": "Brazil", "phone_number": null, "timezone": "America/Bahia"}, {"id": "6540920", "gmt": "4.30", "airport_id": "8146", "iata_code": "UND", "city_iata_code": "UND", "icao_code": "OAUZ", "country_iso2": "AF", "geoname_id": "1135689", "latitude": "36.660557", "longitude": "68.909164", "airport_name": "Kunduz", "country_name": "Afghanistan", "phone_number": null, "timezone": "Asia/Kabul"}, {"id": "6540921", "gmt": "2", "airport_id": "8147", "iata_code": "UNE", "city_iata_code": "UNE", "icao_code": "FXQN", "country_iso2": "LS", "geoname_id": "7730542", "latitude": "-30.166668", "longitude": "27.166668", "airport_name": "Qachas Nek", "country_name": "Lesotho", "phone_number": null, "timezone": "Africa/Maseru"}, {"id": "6540922", "gmt": "10", "airport_id": "8148", "iata_code": "UNG", "city_iata_code": "UNG", "icao_code": "AYKI", "country_iso2": "PG", "geoname_id": "7730409", "latitude": "-6.125552", "longitude": "141.28601", "airport_name": "Kiunga", "country_name": "Papua New Guinea", "phone_number": null, "timezone": "Pacific/Port_Moresby"}, {"id": "6540924", "gmt": "-9", "airport_id": "8150", "iata_code": "UNK", "city_iata_code": "UNK", "icao_code": "PAUN", "country_iso2": "US", "geoname_id": "5877193", "latitude": "63.881927", "longitude": "-160.79944", "airport_name": "Unalakleet", "country_name": "United States", "phone_number": null, "timezone": "America/Anchorage"}, {"id": "6540925", "gmt": "7", "airport_id": "8151", "iata_code": "UNN", "city_iata_code": "UNN", "icao_code": "VTSR", "country_iso2": "TH", "geoname_id": "6301158", "latitude": "9.852778", "longitude": "98.629166", "airport_name": "Ranong", "country_name": "Thailand", "phone_number": null, "timezone": "Asia/Bangkok"}, {"id": "6540929", "gmt": "-6", "airport_id": "8155", "iata_code": "UNU", "city_iata_code": "UNU", "icao_code": "KUNU", "country_iso2": "US", "geoname_id": "5258190", "latitude": "58.3", "longitude": "-134.41667", "airport_name": "Dodge County", "country_name": "United States", "phone_number": null, "timezone": "America/Chicago"}, {"id": "6540930", "gmt": "8", "airport_id": "8156", "iata_code": "UOL", "city_iata_code": "UOL", "icao_code": "WAMQ", "country_iso2": "ID", "geoname_id": "7731588", "latitude": "1.166667", "longitude": "121.433334", "airport_name": "Buol", "country_name": "Indonesia", "phone_number": null, "timezone": "Asia/Makassar"}, {"id": "6540932", "gmt": "-6", "airport_id": "8158", "iata_code": "UOS", "city_iata_code": "UOS", "icao_code": "KUOS", "country_iso2": "US", "geoname_id": "4656589", "latitude": "35.183334", "longitude": "-85.9", "airport_name": "Franklin County", "country_name": "United States", "phone_number": null, "timezone": "America/Chicago"}, {"id": "6540933", "gmt": "-6", "airport_id": "8159", "iata_code": "UOX", "city_iata_code": "UOX", "icao_code": "KUOX", "country_iso2": "US", "geoname_id": "4449420", "latitude": "34.384445", "longitude": "-89.535", "airport_name": "University-Oxford", "country_name": "United States", "phone_number": null, "timezone": "America/Chicago"}, {"id": "6540935", "gmt": "-5", "airport_id": "8161", "iata_code": "UPB", "city_iata_code": "UPB", "icao_code": "MUPB", "country_iso2": "CU", "geoname_id": "7910216", "latitude": "23.032778", "longitude": "-82.579445", "airport_name": "Playa Baracoa", "country_name": "Cuba", "phone_number": null, "timezone": "America/Havana"}, {"id": "6540936", "gmt": "8", "airport_id": "8162", "iata_code": "UPG", "city_iata_code": "UPG", "icao_code": "WAAA", "country_iso2": "ID", "geoname_id": "6301177", "latitude": "-5.058312", "longitude": "119.54589", "airport_name": "Hasanudin", "country_name": "Indonesia", "phone_number": null, "timezone": "Asia/Makassar"}, {"id": "6540937", "gmt": "-6", "airport_id": "8163", "iata_code": "UPL", "city_iata_code": "UPL", "icao_code": "MRUP", "country_iso2": "CR", "geoname_id": "7730115", "latitude": "10.783333", "longitude": "-85.03333", "airport_name": "Upala", "country_name": "Costa Rica", "phone_number": null, "timezone": "America/Costa_Rica"}, {"id": "6540938", "gmt": "-6", "airport_id": "8164", "iata_code": "UPN", "city_iata_code": "UPN", "icao_code": "MMPN", "country_iso2": "MX", "geoname_id": "6299866", "latitude": "19.411112", "longitude": "-102.04722", "airport_name": "Uruapan", "country_name": "Mexico", "phone_number": null, "timezone": "America/Mexico_City"}, {"id": "6540939", "gmt": "-10", "airport_id": "8165", "iata_code": "UPP", "city_iata_code": "UPP", "icao_code": "PHUP", "country_iso2": "US", "geoname_id": "5853930", "latitude": "20.268057", "longitude": "-155.8625", "airport_name": "Upolu Point", "country_name": "United States", "phone_number": null, "timezone": "Pacific/Honolulu"}, {"id": "6540941", "gmt": null, "airport_id": "8167", "iata_code": "UPV", "city_iata_code": "UPV", "icao_code": "EGDJ", "country_iso2": "GB", "geoname_id": "2635162", "latitude": "51.3", "longitude": "-1.816667", "airport_name": "Upavon", "country_name": "United Kingdom", "phone_number": null, "timezone": "Europe/London"}, {"id": "6540943", "gmt": "5", "airport_id": "8169", "iata_code": "URA", "city_iata_code": "URA", "icao_code": "UARR", "country_iso2": "KZ", "geoname_id": "6300919", "latitude": "51.15371", "longitude": "51.538563", "airport_name": "Uralsk / Podstepnyy", "country_name": "Kazakhstan", "phone_number": null, "timezone": "Asia/Oral"}, {"id": "6540946", "gmt": "2", "airport_id": "8172", "iata_code": "URE", "city_iata_code": "URE", "icao_code": "EEKE", "country_iso2": "EE", "geoname_id": "6296536", "latitude": "58.216667", "longitude": "22.5", "airport_name": "Kuressaare", "country_name": "Estonia", "phone_number": null, "timezone": "Europe/Tallinn"}, {"id": "6540947", "gmt": "-3", "airport_id": "8173", "iata_code": "URG", "city_iata_code": "URG", "icao_code": "SBUG", "country_iso2": "BR", "geoname_id": "6301858", "latitude": "-29.781668", "longitude": "-57.038334", "airport_name": "Ruben Berta", "country_name": "Brazil", "phone_number": null, "timezone": "America/Sao_Paulo"}, {"id": "6540949", "gmt": "5", "airport_id": "8175", "iata_code": "URJ", "city_iata_code": "URJ", "icao_code": "USHU", "country_iso2": "RU", "geoname_id": "7730197", "latitude": "60.11667", "longitude": "64.833336", "airport_name": "Uraj", "country_name": "Russia", "phone_number": null, "timezone": "Asia/Yekaterinburg"}, {"id": "6540950", "gmt": "-4", "airport_id": "8176", "iata_code": "URM", "city_iata_code": "URM", "icao_code": "SVUM", "country_iso2": "VE", "geoname_id": "7731589", "latitude": "5.341667", "longitude": "-62.75833", "airport_name": "Uriman", "country_name": "Venezuela", "phone_number": null, "timezone": "America/Caracas"}, {"id": "6540952", "gmt": "1", "airport_id": "8178", "iata_code": "URO", "city_iata_code": "URO", "icao_code": "LFOP", "country_iso2": "FR", "geoname_id": "6299435", "latitude": "49.38861", "longitude": "1.1875", "airport_name": "Boos", "country_name": "France", "phone_number": null, "timezone": "Europe/Paris"}, {"id": "6540953", "gmt": "-5", "airport_id": "8179", "iata_code": "URR", "city_iata_code": "URR", "icao_code": "SKUR", "country_iso2": "CO", "geoname_id": "7731590", "latitude": "6.333333", "longitude": "-76.183334", "airport_name": "Urrao", "country_name": "Colombia", "phone_number": null, "timezone": "America/Bogota"}, {"id": "6540954", "gmt": "3", "airport_id": "8180", "iata_code": "URS", "city_iata_code": "URS", "icao_code": "UUOK", "country_iso2": "RU", "geoname_id": "7668551", "latitude": "51.75", "longitude": "36.266666", "airport_name": "Kursk", "country_name": "Russia", "phone_number": null, "timezone": "Europe/Moscow"}, {"id": "6540955", "gmt": "7", "airport_id": "8181", "iata_code": "URT", "city_iata_code": "URT", "icao_code": "VTSB", "country_iso2": "TH", "geoname_id": "6301153", "latitude": "9.133865", "longitude": "99.143196", "airport_name": "Surat Thani", "country_name": "Thailand", "phone_number": null, "timezone": "Asia/Bangkok"}, {"id": "6540957", "gmt": "3", "airport_id": "8183", "iata_code": "URY", "city_iata_code": "URY", "icao_code": "OEGT", "country_iso2": "SA", "geoname_id": "392993", "latitude": "31.409622", "longitude": "37.275005", "airport_name": "Gurayat", "country_name": "Saudi Arabia", "phone_number": null, "timezone": "Asia/Riyadh"}, {"id": "6540959", "gmt": "-3", "airport_id": "8185", "iata_code": "USH", "city_iata_code": "USH", "icao_code": "SAWH", "country_iso2": "AR", "geoname_id": "6300574", "latitude": "-54.839348", "longitude": "-68.31245", "airport_name": "Islas Malvinas Argentinas International", "country_name": "Argentina", "phone_number": null, "timezone": "America/Argentina/Ushuaia"}, {"id": "6540960", "gmt": "-4", "airport_id": "8186", "iata_code": "USI", "city_iata_code": "USI", "icao_code": "SYMB", "country_iso2": "GY", "geoname_id": "7731591", "latitude": "8.166667", "longitude": "-59.833332", "airport_name": "Mabaruma", "country_name": "Guyana", "phone_number": null, "timezone": "America/Guyana"}, {"id": "6540961", "gmt": "3", "airport_id": "8187", "iata_code": "USK", "city_iata_code": "USK", "icao_code": "UUYS", "country_iso2": "RU", "geoname_id": "7668559", "latitude": "65.95", "longitude": "57.4", "airport_name": "Usinsk", "country_name": "Russia", "phone_number": null, "timezone": "Europe/Moscow"}, {"id": "6540962", "gmt": "8", "airport_id": "8188", "iata_code": "USL", "city_iata_code": "USL", "icao_code": "YUSL", "country_iso2": "AU", "geoname_id": "7731592", "latitude": "-25.966667", "longitude": "113.11667", "airport_name": "Useless Loop", "country_name": "Australia", "phone_number": null, "timezone": "Australia/Perth"}, {"id": "6540963", "gmt": "7", "airport_id": "8189", "iata_code": "USM", "city_iata_code": "USM", "icao_code": "VTSM", "country_iso2": "TH", "geoname_id": "6452617", "latitude": "9.555315", "longitude": "100.0628", "airport_name": "Koh Samui", "country_name": "Thailand", "phone_number": null, "timezone": "Asia/Bangkok"}, {"id": "6540964", "gmt": "9", "airport_id": "8190", "iata_code": "USN", "city_iata_code": "USN", "icao_code": "RKPU", "country_iso2": "KR", "geoname_id": "6300427", "latitude": "35.59367", "longitude": "129.35597", "airport_name": "Ulsan", "country_name": "South Korea", "phone_number": null, "timezone": "Asia/Seoul"}, {"id": "6540965", "gmt": "3", "airport_id": "8191", "iata_code": "USQ", "city_iata_code": "USQ", "icao_code": "LTBO", "country_iso2": "TR", "geoname_id": "6299753", "latitude": "38.68222", "longitude": "29.471945", "airport_name": "Usak", "country_name": "Turkey", "phone_number": null, "timezone": "Europe/Istanbul"}, {"id": "6540967", "gmt": "-5", "airport_id": "8193", "iata_code": "UST", "city_iata_code": "UST", "icao_code": "KSGJ", "country_iso2": "US", "geoname_id": "4170895", "latitude": "29.95", "longitude": "-81.333336", "airport_name": "St Augustine", "country_name": "United States", "phone_number": null, "timezone": "America/New_York"}, {"id": "6540968", "gmt": "8", "airport_id": "8194", "iata_code": "USU", "city_iata_code": "USU", "icao_code": "RPVV", "country_iso2": "PH", "geoname_id": "7730146", "latitude": "12.1", "longitude": "120.166664", "airport_name": "Francisco Reyes", "country_name": "Philippines", "phone_number": null, "timezone": "Asia/Manila"}, {"id": "6540969", "gmt": "2", "airport_id": "8195", "iata_code": "UTA", "city_iata_code": "UTA", "icao_code": "FVMU", "country_iso2": "ZW", "geoname_id": "7730530", "latitude": "-18.966667", "longitude": "32.666668", "airport_name": "Mutare", "country_name": "Zimbabwe", "phone_number": null, "timezone": "Africa/Harare"}, {"id": "6540970", "gmt": "10", "airport_id": "8196", "iata_code": "UTB", "city_iata_code": "UTB", "icao_code": "YMTB", "country_iso2": "AU", "geoname_id": "7668745", "latitude": "-22.5875", "longitude": "144.525", "airport_name": "Muttaburra", "country_name": "Australia", "phone_number": null, "timezone": "Australia/Brisbane"}, {"id": "6540972", "gmt": "2", "airport_id": "8198", "iata_code": "UTG", "city_iata_code": "UTG", "icao_code": "FXQG", "country_iso2": "LS", "geoname_id": "7730541", "latitude": "-30.5", "longitude": "27.6", "airport_name": "Quthing", "country_name": "Lesotho", "phone_number": null, "timezone": "Africa/Maseru"}, {"id": "6540973", "gmt": "7", "airport_id": "8199", "iata_code": "UTH", "city_iata_code": "UTH", "icao_code": "VTUD", "country_iso2": "TH", "geoname_id": "1611284", "latitude": "17.38661", "longitude": "102.774506", "airport_name": "Udon Thani", "country_name": "Thailand", "phone_number": null, "timezone": "Asia/Bangkok"}, {"id": "6540974", "gmt": "2", "airport_id": "8200", "iata_code": "UTI", "city_iata_code": "UTI", "icao_code": "EFUT", "country_iso2": "FI", "geoname_id": "6296565", "latitude": "60.9", "longitude": "26.933332", "airport_name": "Utti", "country_name": "Finland", "phone_number": null, "timezone": "Europe/Helsinki"}, {"id": "6540977", "gmt": "-6", "airport_id": "8203", "iata_code": "UTM", "city_iata_code": "UTM", "icao_code": "KUTA", "country_iso2": "US", "geoname_id": "6301742", "latitude": "34.667694", "longitude": "-90.36767", "airport_name": "Tunica Municipalcipal Airport", "country_name": "United States", "phone_number": null, "timezone": "America/Chicago"}, {"id": "6540978", "gmt": "2", "airport_id": "8204", "iata_code": "UTN", "city_iata_code": "UTN", "icao_code": "FAUP", "country_iso2": "ZA", "geoname_id": "965315", "latitude": "-28.400557", "longitude": "21.253332", "airport_name": "Upington", "country_name": "South Africa", "phone_number": null, "timezone": "Africa/Johannesburg"}, {"id": "6540979", "gmt": "-9", "airport_id": "8205", "iata_code": "UTO", "city_iata_code": "UTO", "icao_code": "PAIM", "country_iso2": "US", "geoname_id": "5864740", "latitude": "65.99333", "longitude": "-153.70166", "airport_name": "Indian Mountain AFS", "country_name": "United States", "phone_number": null, "timezone": "America/Anchorage"}, {"id": "6540980", "gmt": "7", "airport_id": "8206", "iata_code": "UTP", "city_iata_code": "UTP", "icao_code": "VTBU", "country_iso2": "TH", "geoname_id": "6301138", "latitude": "12.683333", "longitude": "101.01667", "airport_name": "Utapao", "country_name": "Thailand", "phone_number": null, "timezone": "Asia/Bangkok"}, {"id": "6540981", "gmt": "7", "airport_id": "8207", "iata_code": "UTR", "city_iata_code": "UTR", "icao_code": "VTPU", "country_iso2": "TH", "geoname_id": "6301151", "latitude": "17.669443", "longitude": "100.24389", "airport_name": "Uttaradit", "country_name": "Thailand", "phone_number": null, "timezone": "Asia/Bangkok"}, {"id": "6540982", "gmt": "3", "airport_id": "8208", "iata_code": "UTS", "city_iata_code": "UTS", "icao_code": "UUYX", "country_iso2": "RU", "geoname_id": "4699544", "latitude": "65.433334", "longitude": "52.2", "airport_name": "Ust-Tsilma", "country_name": "Russia", "phone_number": null, "timezone": "Europe/Moscow"}, {"id": "6540983", "gmt": "2", "airport_id": "8209", "iata_code": "UTT", "city_iata_code": "UTT", "icao_code": "FAUT", "country_iso2": "ZA", "geoname_id": "991575", "latitude": "-31.583332", "longitude": "28.783333", "airport_name": "Umtata", "country_name": "South Africa", "phone_number": null, "timezone": "Africa/Johannesburg"}, {"id": "6540985", "gmt": "2", "airport_id": "8211", "iata_code": "UTW", "city_iata_code": "UTW", "icao_code": "FAQT", "country_iso2": "ZA", "geoname_id": "963518", "latitude": "-31.866667", "longitude": "26.866667", "airport_name": "Queenstown", "country_name": "South Africa", "phone_number": null, "timezone": "Africa/Johannesburg"}, {"id": "6540986", "gmt": "3", "airport_id": "8212", "iata_code": "UUA", "city_iata_code": "UUA", "icao_code": "UWKB", "country_iso2": "RU", "geoname_id": "7668561", "latitude": "54.61667", "longitude": "52.816666", "airport_name": "Bugulma", "country_name": "Russia", "phone_number": null, "timezone": "Europe/Moscow"}, {"id": "6540987", "gmt": "8", "airport_id": "8213", "iata_code": "UUD", "city_iata_code": "UUD", "icao_code": "UIUU", "country_iso2": "RU", "geoname_id": "6300951", "latitude": "51.833332", "longitude": "107.5", "airport_name": "Ulan-ude, Baykal", "country_name": "Russia", "phone_number": null, "timezone": "Asia/Irkutsk"}, {"id": "6540989", "gmt": "8", "airport_id": "8215", "iata_code": "UUN", "city_iata_code": "UUN", "icao_code": "ZMBU", "country_iso2": "MN", "geoname_id": "7668796", "latitude": "46.683334", "longitude": "113.28333", "airport_name": "Baruun-Urt", "country_name": "Mongolia", "phone_number": null, "timezone": "Asia/Choibalsan"}, {"id": "6540990", "gmt": "11", "airport_id": "8216", "iata_code": "UUS", "city_iata_code": "UUS", "icao_code": "UHSS", "country_iso2": "RU", "geoname_id": "6300941", "latitude": "46.966667", "longitude": "142.75", "airport_name": "Yuzhno-Sakhalinsk", "country_name": "Russia", "phone_number": null, "timezone": "Asia/Sakhalin"}, {"id": "6540993", "gmt": "11", "airport_id": "8219", "iata_code": "UVE", "city_iata_code": "UVE", "icao_code": "NWWV", "country_iso2": "NC", "geoname_id": "6299978", "latitude": "-20.64242", "longitude": "166.57198", "airport_name": "Ouvea", "country_name": "New Caledonia", "phone_number": null, "timezone": "Pacific/Noumea"}, {"id": "6540994", "gmt": "-4", "airport_id": "8220", "iata_code": "UVF", "city_iata_code": "SLU", "icao_code": "TLPL", "country_iso2": "LC", "geoname_id": "3576674", "latitude": "13.735556", "longitude": "-60.95222", "airport_name": "Hewanorra", "country_name": "Saint Lucia", "phone_number": null, "timezone": "America/St_Lucia"}, {"id": "6540995", "gmt": "2", "airport_id": "8221", "iata_code": "UVL", "city_iata_code": "UVL", "icao_code": "HEKG", "country_iso2": "EG", "geoname_id": "7730611", "latitude": "25.475", "longitude": "30.590834", "airport_name": "Kharga", "country_name": "Egypt", "phone_number": null, "timezone": "Africa/Cairo"}, {"id": "6541000", "gmt": "3", "airport_id": "8226", "iata_code": "UYL", "city_iata_code": "UYL", "icao_code": "HSNL", "country_iso2": "SD", "geoname_id": "6297344", "latitude": "12.071667", "longitude": "24.894722", "airport_name": "Nyala", "country_name": "Sudan", "phone_number": null, "timezone": "Africa/Khartoum"}, {"id": "6541001", "gmt": "8", "airport_id": "8227", "iata_code": "UYN", "city_iata_code": "UYN", "icao_code": "ZLYL", "country_iso2": "CN", "geoname_id": "7731593", "latitude": "38.274155", "longitude": "109.73038", "airport_name": "Yulin", "country_name": "China", "phone_number": null, "timezone": "Asia/Shanghai"}, {"id": "6541003", "gmt": "1", "airport_id": "8229", "iata_code": "UZC", "city_iata_code": "UZC", "icao_code": "LYUE", "country_iso2": "RS", "geoname_id": "7668338", "latitude": "43.898834", "longitude": "19.697403", "airport_name": "Uzice-Ponikve", "country_name": "Serbia", "phone_number": null, "timezone": "Europe/Belgrade"}, {"id": "6541006", "gmt": "-3", "airport_id": "8232", "iata_code": "UZU", "city_iata_code": "UZU", "icao_code": "SATU", "country_iso2": "AR", "geoname_id": "6300562", "latitude": "-29.778889", "longitude": "-58.095554", "airport_name": "Curuzu Cuatia", "country_name": "Argentina", "phone_number": null, "timezone": "America/Argentina/Cordoba"}, {"id": "6541007", "gmt": "2", "airport_id": "8233", "iata_code": "VAA", "city_iata_code": "VAA", "icao_code": "EFVA", "country_iso2": "FI", "geoname_id": "6296566", "latitude": "63.04355", "longitude": "21.760122", "airport_name": "Vaasa", "country_name": "Finland", "phone_number": null, "timezone": "Europe/Helsinki"}, {"id": "6541009", "gmt": "1", "airport_id": "8235", "iata_code": "VAC", "city_iata_code": "VAC", "icao_code": "EDWU", "country_iso2": "DE", "geoname_id": "7730470", "latitude": "52.916668", "longitude": "8.05", "airport_name": "Varrelbusch", "country_name": "Germany", "phone_number": null, "timezone": "Europe/Berlin"}, {"id": "6541011", "gmt": "1", "airport_id": "8237", "iata_code": "VAF", "city_iata_code": "VAF", "icao_code": "LFLU", "country_iso2": "FR", "geoname_id": "6694620", "latitude": "44.920277", "longitude": "4.970278", "airport_name": "Chabeuil", "country_name": "France", "phone_number": null, "timezone": "Europe/Paris"}, {"id": "6541012", "gmt": "-3", "airport_id": "8238", "iata_code": "VAG", "city_iata_code": "VAG", "icao_code": "SBVG", "country_iso2": "BR", "geoname_id": "7730163", "latitude": "-21.55", "longitude": "-45.433334", "airport_name": "Maj. Brig. Trompowsky", "country_name": "Brazil", "phone_number": null, "timezone": "America/Sao_Paulo"}, {"id": "6541013", "gmt": "-4", "airport_id": "8239", "iata_code": "VAH", "city_iata_code": "VAH", "icao_code": "SLVG", "country_iso2": "BO", "geoname_id": "7731594", "latitude": "-18.483334", "longitude": "-64.1", "airport_name": "Vallegrande", "country_name": "Bolivia", "phone_number": null, "timezone": "America/La_Paz"}, {"id": "6541014", "gmt": "10", "airport_id": "8240", "iata_code": "VAI", "city_iata_code": "VAI", "icao_code": "AYVN", "country_iso2": "PG", "geoname_id": "7668088", "latitude": "-2.694722", "longitude": "141.30194", "airport_name": "Vanimo", "country_name": "Papua New Guinea", "phone_number": null, "timezone": "Pacific/Port_Moresby"}, {"id": "6541015", "gmt": "-9", "airport_id": "8241", "iata_code": "VAK", "city_iata_code": "VAK", "icao_code": "PAVA", "country_iso2": "US", "geoname_id": "5859115", "latitude": "61.52861", "longitude": "-165.59027", "airport_name": "Chevak", "country_name": "United States", "phone_number": null, "timezone": "America/Nome"}, {"id": "6541016", "gmt": "-3", "airport_id": "8242", "iata_code": "VAL", "city_iata_code": "VAL", "icao_code": "SNVB", "country_iso2": "BR", "geoname_id": "7731595", "latitude": "-13.333333", "longitude": "-39.083332", "airport_name": "Valenca", "country_name": "Brazil", "phone_number": null, "timezone": "America/Bahia"}, {"id": "6541017", "gmt": "5", "airport_id": "8243", "iata_code": "VAM", "city_iata_code": "VAM", "icao_code": "VRMV", "country_iso2": "MV", "geoname_id": "8181786", "latitude": "55.46389", "longitude": "9.458333", "airport_name": "Maamigili", "country_name": "Maldives", "phone_number": null, "timezone": "Indian/Maldives"}, {"id": "6541018", "gmt": "3", "airport_id": "8244", "iata_code": "VAN", "city_iata_code": "VAN", "icao_code": "LTCI", "country_iso2": "TR", "geoname_id": "6299767", "latitude": "38.45861", "longitude": "43.332222", "airport_name": "Ferit Melen Airport", "country_name": "Turkey", "phone_number": null, "timezone": "Europe/Istanbul"}, {"id": "6541019", "gmt": "11", "airport_id": "8245", "iata_code": "VAO", "city_iata_code": "VAO", "icao_code": "AGGV", "country_iso2": "SB", "geoname_id": "7668072", "latitude": "-7.566667", "longitude": "158.66667", "airport_name": "Suavanao Airstrip", "country_name": "Solomon Islands", "phone_number": null, "timezone": "Pacific/Guadalcanal"}, {"id": "6541020", "gmt": "-4", "airport_id": "8246", "iata_code": "VAP", "city_iata_code": "VAP", "icao_code": "SCRD", "country_iso2": "CL", "geoname_id": "7731596", "latitude": "-33.033333", "longitude": "-71.666664", "airport_name": "Valparaiso", "country_name": null, "phone_number": null, "timezone": "America/Santiago"}, {"id": "6541021", "gmt": "2", "airport_id": "8247", "iata_code": "VAR", "city_iata_code": "VAR", "icao_code": "LBWN", "country_iso2": "BG", "geoname_id": "6299310", "latitude": "43.23726", "longitude": "27.829096", "airport_name": "Varna", "country_name": "Bulgaria", "phone_number": null, "timezone": "Europe/Sofia"}, {"id": "6541022", "gmt": "3", "airport_id": "8248", "iata_code": "VAS", "city_iata_code": "VAS", "icao_code": "LTAR", "country_iso2": "TR", "geoname_id": "6299735", "latitude": "39.81389", "longitude": "36.904167", "airport_name": "Sivas", "country_name": "Turkey", "phone_number": null, "timezone": "Europe/Istanbul"}, {"id": "6541023", "gmt": "3", "airport_id": "8249", "iata_code": "VAT", "city_iata_code": "VAT", "icao_code": "FMMY", "country_iso2": "MG", "geoname_id": "7730510", "latitude": "-19.283333", "longitude": "48.833332", "airport_name": "Vatomandry", "country_name": "Madagascar", "phone_number": null, "timezone": "Indian/Antananarivo"}, {"id": "6541024", "gmt": "12", "airport_id": "8250", "iata_code": "VAU", "city_iata_code": "VAU", "icao_code": "NFNV", "country_iso2": "FJ", "geoname_id": "7730690", "latitude": "-17.5", "longitude": "177.86667", "airport_name": "Vatukoula", "country_name": null, "phone_number": null, "timezone": "Pacific/Fiji"}]}