{"pagination": {"offset": 2700, "limit": 100, "count": 100, "total": 6685}, "data": [{"id": "6536581", "gmt": "2", "airport_id": "3807", "iata_code": "KGS", "city_iata_code": "KGS", "icao_code": "LGKO", "country_iso2": "GR", "geoname_id": "6299493", "latitude": "36.793056", "longitude": "27.095278", "airport_name": "Kos Island International Airport", "country_name": "Greece", "phone_number": "+30 22420 560", "timezone": "Europe/Athens"}, {"id": "6536582", "gmt": "8", "airport_id": "3808", "iata_code": "KGT", "city_iata_code": "KGT", "icao_code": "ZUKD", "country_iso2": "CN", "geoname_id": "8260819", "latitude": "30.1575", "longitude": "101.73472", "airport_name": "Kangding", "country_name": "China", "phone_number": null, "timezone": "Asia/Shanghai"}, {"id": "6536583", "gmt": "8", "airport_id": "3809", "iata_code": "KGU", "city_iata_code": "KGU", "icao_code": "WBKG", "country_iso2": "MY", "geoname_id": "7731170", "latitude": "5.356667", "longitude": "116.16194", "airport_name": "Keningau", "country_name": "Malaysia", "phone_number": null, "timezone": "Asia/Kuching"}, {"id": "6536586", "gmt": "10", "airport_id": "3812", "iata_code": "KGY", "city_iata_code": "KGY", "icao_code": "YKRY", "country_iso2": "AU", "geoname_id": "7730263", "latitude": "-26.55", "longitude": "151.83333", "airport_name": "Kingaroy", "country_name": "Australia", "phone_number": null, "timezone": "Australia/Brisbane"}, {"id": "6536589", "gmt": "3", "airport_id": "3815", "iata_code": "KHC", "city_iata_code": "KHC", "icao_code": "UKFK", "country_iso2": "UA", "geoname_id": "7731171", "latitude": "45.36667", "longitude": "36.45", "airport_name": "Kerch", "country_name": "Ukraine", "phone_number": null, "timezone": "Europe/Simferopol"}, {"id": "6536590", "gmt": "3.30", "airport_id": "3816", "iata_code": "KHD", "city_iata_code": "KHD", "icao_code": "OICK", "country_iso2": "IR", "geoname_id": "6300049", "latitude": "33.43861", "longitude": "48.280834", "airport_name": "Khorramabad", "country_name": "Iran", "phone_number": null, "timezone": "Asia/Tehran"}, {"id": "6536591", "gmt": "2", "airport_id": "3817", "iata_code": "KHE", "city_iata_code": "KHE", "icao_code": "UKOH", "country_iso2": "UA", "geoname_id": "7731172", "latitude": "46.675278", "longitude": "32.627777", "airport_name": "Kherson", "country_name": "Ukraine", "phone_number": null, "timezone": "Europe/Kiev"}, {"id": "6536592", "gmt": "8", "airport_id": "3818", "iata_code": "KHG", "city_iata_code": "KHG", "icao_code": "ZWSH", "country_iso2": "CN", "geoname_id": "6301394", "latitude": "39.534973", "longitude": "76.01107", "airport_name": "Kashi", "country_name": "China", "phone_number": null, "timezone": "Asia/Shanghai"}, {"id": "6536593", "gmt": "8", "airport_id": "3819", "iata_code": "KHH", "city_iata_code": "KHH", "icao_code": "RCKH", "country_iso2": "TW", "geoname_id": "6301820", "latitude": "22.5725", "longitude": "120.345276", "airport_name": "Kaoshiung International Airport", "country_name": "Taiwan", "phone_number": null, "timezone": "Asia/Taipei"}, {"id": "6536594", "gmt": "5", "airport_id": "3820", "iata_code": "KHI", "city_iata_code": "KHI", "icao_code": "OPKC", "country_iso2": "PK", "geoname_id": "6300111", "latitude": "24.899986", "longitude": "67.16828", "airport_name": "Quaid-e-azam International", "country_name": "Pakistan", "phone_number": null, "timezone": "Asia/Karachi"}, {"id": "6536595", "gmt": "2", "airport_id": "3821", "iata_code": "KHJ", "city_iata_code": "KHJ", "icao_code": "EFKJ", "country_iso2": "FI", "geoname_id": "7668193", "latitude": "62.463055", "longitude": "22.394722", "airport_name": "Kauhajoki", "country_name": "Finland", "phone_number": null, "timezone": "Europe/Helsinki"}, {"id": "6536597", "gmt": "6.30", "airport_id": "3823", "iata_code": "KHM", "city_iata_code": "KHM", "icao_code": "VYKI", "country_iso2": "MM", "geoname_id": "7668656", "latitude": "25.993513", "longitude": "95.67965", "airport_name": "Khamti", "country_name": null, "phone_number": null, "timezone": "Asia/Rangoon"}, {"id": "6536598", "gmt": "8", "airport_id": "3824", "iata_code": "KHN", "city_iata_code": "KHN", "icao_code": "ZSCN", "country_iso2": "CN", "geoname_id": "6301380", "latitude": "28.859901", "longitude": "115.907845", "airport_name": "Nanchang", "country_name": "China", "phone_number": null, "timezone": "Asia/Shanghai"}, {"id": "6536600", "gmt": "8", "airport_id": "3826", "iata_code": "KHR", "city_iata_code": "KHR", "icao_code": "ZMHH", "country_iso2": "MN", "geoname_id": "8261039", "latitude": "46.783333", "longitude": "102.85", "airport_name": "Kharkhorin", "country_name": "Mongolia", "phone_number": null, "timezone": "Asia/Ulaanbaatar"}, {"id": "6536601", "gmt": "4", "airport_id": "3827", "iata_code": "KHS", "city_iata_code": "KHS", "icao_code": "OOKB", "country_iso2": "OM", "geoname_id": "6300102", "latitude": "26.163939", "longitude": "56.23506", "airport_name": "Khasab", "country_name": "Oman", "phone_number": null, "timezone": "Asia/Muscat"}, {"id": "6536604", "gmt": "10", "airport_id": "3830", "iata_code": "KHV", "city_iata_code": "KHV", "icao_code": "UHHH", "country_iso2": "RU", "geoname_id": "6300934", "latitude": "48.524563", "longitude": "135.16861", "airport_name": "Novyy", "country_name": "Russia", "phone_number": null, "timezone": "Asia/Vladivostok"}, {"id": "6536605", "gmt": "2", "airport_id": "3831", "iata_code": "KHW", "city_iata_code": "KHW", "icao_code": "FBKR", "country_iso2": "BW", "geoname_id": "7730494", "latitude": "-19", "longitude": "23.5", "airport_name": "Khwai River Lodge", "country_name": "Botswana", "phone_number": null, "timezone": "Africa/Gaborone"}, {"id": "6536606", "gmt": "3.30", "airport_id": "3832", "iata_code": "KHY", "city_iata_code": "KHY", "icao_code": "OITK", "country_iso2": "IR", "geoname_id": "6300076", "latitude": "38.42917", "longitude": "44.97139", "airport_name": "Khoy", "country_name": "Iran", "phone_number": null, "timezone": "Asia/Tehran"}, {"id": "6536607", "gmt": "-10", "airport_id": "3833", "iata_code": "KHZ", "city_iata_code": "KHZ", "icao_code": "NTKA", "country_iso2": "PF", "geoname_id": "7730702", "latitude": "-15.766667", "longitude": "-145.11667", "airport_name": "Kauehi", "country_name": "French Polynesia", "phone_number": null, "timezone": "Pacific/Tahiti"}, {"id": "6536609", "gmt": "-8", "airport_id": "3835", "iata_code": "KIC", "city_iata_code": "KIC", "icao_code": "KKIC", "country_iso2": "US", "geoname_id": "5372395", "latitude": "36.216667", "longitude": "-121.13333", "airport_name": "Mesa Del Rey", "country_name": "United States", "phone_number": null, "timezone": "America/Los_Angeles"}, {"id": "6536610", "gmt": "1", "airport_id": "3836", "iata_code": "KID", "city_iata_code": "KID", "icao_code": "ESMK", "country_iso2": "SE", "geoname_id": "6296796", "latitude": "55.919445", "longitude": "14.088889", "airport_name": "Kristianstad", "country_name": "Sweden", "phone_number": null, "timezone": "Europe/Stockholm"}, {"id": "6536612", "gmt": "-6", "airport_id": "3838", "iata_code": "KIF", "city_iata_code": "KIF", "icao_code": "CNM5", "country_iso2": "CA", "geoname_id": "7730450", "latitude": "53.01389", "longitude": "-89.85", "airport_name": "Kingfisher Lake", "country_name": "Canada", "phone_number": null, "timezone": "America/Winnipeg"}, {"id": "6536614", "gmt": "3.30", "airport_id": "3840", "iata_code": "KIH", "city_iata_code": "KIH", "icao_code": "OIBK", "country_iso2": "IR", "geoname_id": "6300043", "latitude": "26.532276", "longitude": "53.972084", "airport_name": "Kish Island", "country_name": "Iran", "phone_number": null, "timezone": "Asia/Tehran"}, {"id": "6536616", "gmt": "9", "airport_id": "3842", "iata_code": "KIJ", "city_iata_code": "KIJ", "icao_code": "RJSN", "country_iso2": "JP", "geoname_id": "6300396", "latitude": "37.951992", "longitude": "139.11325", "airport_name": "Niigata", "country_name": "Japan", "phone_number": null, "timezone": "Asia/Tokyo"}, {"id": "6536617", "gmt": "3", "airport_id": "3843", "iata_code": "KIK", "city_iata_code": "KIK", "icao_code": "ORKK", "country_iso2": "IQ", "geoname_id": "7730757", "latitude": "35.516666", "longitude": "44.283333", "airport_name": "Kirkuk", "country_name": "Iraq", "phone_number": null, "timezone": "Asia/Baghdad"}, {"id": "6536619", "gmt": "2", "airport_id": "3845", "iata_code": "KIM", "city_iata_code": "KIM", "icao_code": "FAKM", "country_iso2": "ZA", "geoname_id": "1021328", "latitude": "-28.805834", "longitude": "24.76639", "airport_name": "Kimberley", "country_name": "South Africa", "phone_number": null, "timezone": "Africa/Johannesburg"}, {"id": "6536620", "gmt": "-5", "airport_id": "3846", "iata_code": "KIN", "city_iata_code": "KIN", "icao_code": "MKJP", "country_iso2": "JM", "geoname_id": "3489854", "latitude": "17.93775", "longitude": "-76.77816", "airport_name": "Norman Manley", "country_name": null, "phone_number": "876-924-8452", "timezone": "America/Jamaica"}, {"id": "6536622", "gmt": "-6", "airport_id": "3848", "iata_code": "KIP", "city_iata_code": "SPS", "icao_code": "KCWC", "country_iso2": "US", "geoname_id": "4703151", "latitude": "33.9", "longitude": "-98.5", "airport_name": "Kickapoo", "country_name": "United States", "phone_number": null, "timezone": "America/Chicago"}, {"id": "6536624", "gmt": null, "airport_id": "3850", "iata_code": "KIR", "city_iata_code": "KIR", "icao_code": "EIKY", "country_iso2": "IE", "geoname_id": "7668220", "latitude": "52.181477", "longitude": "-9.535666", "airport_name": "Kerry", "country_name": "Ireland", "phone_number": null, "timezone": "Europe/Dublin"}, {"id": "6536625", "gmt": "3", "airport_id": "3851", "iata_code": "KIS", "city_iata_code": "KIS", "icao_code": "HKKI", "country_iso2": "KE", "geoname_id": "6297309", "latitude": "-0.084946", "longitude": "34.7375", "airport_name": "Kisumu", "country_name": "Kenya", "phone_number": null, "timezone": "Africa/Nairobi"}, {"id": "6536626", "gmt": "2", "airport_id": "3852", "iata_code": "KIT", "city_iata_code": "KIT", "icao_code": "LGKC", "country_iso2": "GR", "geoname_id": "6299490", "latitude": "36.291668", "longitude": "23.025", "airport_name": "Kithira", "country_name": "Greece", "phone_number": null, "timezone": "Europe/Athens"}, {"id": "6536629", "gmt": "2", "airport_id": "3855", "iata_code": "KIW", "city_iata_code": "KIW", "icao_code": "FLSO", "country_iso2": "ZM", "geoname_id": "6457346", "latitude": "-12.839444", "longitude": "28.230556", "airport_name": "Southdowns", "country_name": "Zambia", "phone_number": null, "timezone": "Africa/Lusaka"}, {"id": "6536630", "gmt": "9", "airport_id": "3856", "iata_code": "KIX", "city_iata_code": "OSA", "icao_code": "RJBB", "country_iso2": "JP", "geoname_id": "6300316", "latitude": "34.43533", "longitude": "135.24397", "airport_name": "Kansai International", "country_name": "Japan", "phone_number": null, "timezone": "Asia/Tokyo"}, {"id": "6536631", "gmt": "3", "airport_id": "3857", "iata_code": "KIY", "city_iata_code": "KIY", "icao_code": "HTKI", "country_iso2": "TZ", "geoname_id": "6297357", "latitude": "-8.911944", "longitude": "39.511665", "airport_name": "Kilwa", "country_name": "Tanzania", "phone_number": null, "timezone": "Africa/Dar_es_Salaam"}, {"id": "6536632", "gmt": "7", "airport_id": "3858", "iata_code": "KJA", "city_iata_code": "KJA", "icao_code": "UNKL", "country_iso2": "RU", "geoname_id": "7729996", "latitude": "56.18113", "longitude": "92.48286", "airport_name": "Krasnojarsk", "country_name": "Russia", "phone_number": null, "timezone": "Asia/Krasnoyarsk"}, {"id": "6536633", "gmt": "8", "airport_id": "3859", "iata_code": "KJI", "city_iata_code": "KJI", "icao_code": "ZWKN", "country_iso2": "CN", "geoname_id": "8260733", "latitude": "48.22167", "longitude": "86.99611", "airport_name": "Kanas", "country_name": "China", "phone_number": null, "timezone": "Asia/Shanghai"}, {"id": "6536634", "gmt": "1", "airport_id": "3860", "iata_code": "KJK", "city_iata_code": "KJK", "icao_code": "EBKT", "country_iso2": "BE", "geoname_id": "7668190", "latitude": "50.817223", "longitude": "3.201667", "airport_name": "Kortrijk", "country_name": "Belgium", "phone_number": null, "timezone": "Europe/Brussels"}, {"id": "6536635", "gmt": "9", "airport_id": "3861", "iata_code": "KJP", "city_iata_code": "KJP", "icao_code": "ROKR", "country_iso2": "JP", "geoname_id": "7668420", "latitude": "26.083332", "longitude": "127.333336", "airport_name": "Kerama", "country_name": "Japan", "phone_number": null, "timezone": "Asia/Tokyo"}, {"id": "6536636", "gmt": "-9", "airport_id": "3862", "iata_code": "KKA", "city_iata_code": "KKA", "icao_code": "PAKK", "country_iso2": "US", "geoname_id": "5866752", "latitude": "64.939445", "longitude": "-161.15", "airport_name": "Koyuk", "country_name": "United States", "phone_number": null, "timezone": "America/Anchorage"}, {"id": "6536638", "gmt": "7", "airport_id": "3864", "iata_code": "KKC", "city_iata_code": "KKC", "icao_code": "VTUK", "country_iso2": "TH", "geoname_id": "1609776", "latitude": "16.46467", "longitude": "102.78749", "airport_name": "Khon Kaen", "country_name": "Thailand", "phone_number": null, "timezone": "Asia/Bangkok"}, {"id": "6536640", "gmt": "12", "airport_id": "3866", "iata_code": "KKE", "city_iata_code": "KKE", "icao_code": "NZKK", "country_iso2": "NZ", "geoname_id": "7536097", "latitude": "-35.263283", "longitude": "173.91237", "airport_name": "Kerikeri/Bay of Islands", "country_name": "New Zealand", "phone_number": null, "timezone": "Pacific/Auckland"}, {"id": "6536643", "gmt": "-9", "airport_id": "3869", "iata_code": "KKH", "city_iata_code": "KKH", "icao_code": "PADY", "country_iso2": "US", "geoname_id": "5866670", "latitude": "59.966667", "longitude": "-162.75", "airport_name": "Kongiganak", "country_name": "United States", "phone_number": null, "timezone": "America/Nome"}, {"id": "6536645", "gmt": "9", "airport_id": "3871", "iata_code": "KKJ", "city_iata_code": "KKJ", "icao_code": "RJFR", "country_iso2": "JP", "geoname_id": "6300352", "latitude": "33.834373", "longitude": "130.9435", "airport_name": "Kita Kyushu", "country_name": "Japan", "phone_number": null, "timezone": "Asia/Tokyo"}, {"id": "6536648", "gmt": "7", "airport_id": "3874", "iata_code": "KKM", "city_iata_code": "KKM", "icao_code": "VTBL", "country_iso2": "TH", "geoname_id": "7730329", "latitude": "14.8", "longitude": "100.61667", "airport_name": "Lop Buri", "country_name": "Thailand", "phone_number": null, "timezone": "Asia/Bangkok"}, {"id": "6536649", "gmt": "1", "airport_id": "3875", "iata_code": "KKN", "city_iata_code": "KKN", "icao_code": "ENKR", "country_iso2": "NO", "geoname_id": "779304", "latitude": "69.7235", "longitude": "29.891184", "airport_name": "Hoeybuktmoen", "country_name": "Norway", "phone_number": null, "timezone": "Europe/Oslo"}, {"id": "6536650", "gmt": "12", "airport_id": "3876", "iata_code": "KKO", "city_iata_code": "KKO", "icao_code": "NZKO", "country_iso2": "NZ", "geoname_id": "6229861", "latitude": "-35.452778", "longitude": "173.81667", "airport_name": "Kaikohe", "country_name": "New Zealand", "phone_number": null, "timezone": "Pacific/Auckland"}, {"id": "6536651", "gmt": "10", "airport_id": "3877", "iata_code": "KKP", "city_iata_code": "KKP", "icao_code": "YKLB", "country_iso2": "AU", "geoname_id": "7731176", "latitude": "-15.583333", "longitude": "143.95", "airport_name": "Koolburra", "country_name": "Australia", "phone_number": null, "timezone": "Australia/Brisbane"}, {"id": "6536652", "gmt": "5", "airport_id": "3878", "iata_code": "KKQ", "city_iata_code": "KKQ", "icao_code": "USDP", "country_iso2": "RU", "geoname_id": "8260745", "latitude": "65.70796", "longitude": "82.456055", "airport_name": "Krasnoselkup", "country_name": "Russia", "phone_number": null, "timezone": "Asia/Yekaterinburg"}, {"id": "6536653", "gmt": "-10", "airport_id": "3879", "iata_code": "KKR", "city_iata_code": "KKR", "icao_code": "NTGK", "country_iso2": "PF", "geoname_id": "7730123", "latitude": "-15.783333", "longitude": "-146.66667", "airport_name": "Kaukura Atoll", "country_name": "French Polynesia", "phone_number": null, "timezone": "Pacific/Tahiti"}, {"id": "6536656", "gmt": "1", "airport_id": "3882", "iata_code": "KKW", "city_iata_code": "KKW", "icao_code": "FZCA", "country_iso2": "CD", "geoname_id": "6297144", "latitude": "-5.036111", "longitude": "18.780277", "airport_name": "Kikwit", "country_name": "Democratic Republic of the Congo", "phone_number": null, "timezone": "Africa/Kinshasa"}, {"id": "6536657", "gmt": "9", "airport_id": "3883", "iata_code": "KKX", "city_iata_code": "KKX", "icao_code": "RJKI", "country_iso2": "JP", "geoname_id": "6300362", "latitude": "28.321388", "longitude": "129.92805", "airport_name": "Kikaiga Shima", "country_name": "Japan", "phone_number": null, "timezone": "Asia/Tokyo"}, {"id": "6536658", "gmt": null, "airport_id": "3884", "iata_code": "KKY", "city_iata_code": "KKY", "icao_code": "EIKK", "country_iso2": "IE", "geoname_id": "7668219", "latitude": "52.65", "longitude": "-7.25", "airport_name": "Kilkenny", "country_name": "Ireland", "phone_number": null, "timezone": "Europe/Dublin"}, {"id": "6536659", "gmt": "7", "airport_id": "3885", "iata_code": "KKZ", "city_iata_code": "KKZ", "icao_code": "VDKK", "country_iso2": "KH", "geoname_id": "7731177", "latitude": "11.633333", "longitude": "102.96667", "airport_name": "Koh Kong", "country_name": "Cambodia", "phone_number": null, "timezone": "Asia/Phnom_Penh"}, {"id": "6536660", "gmt": "2", "airport_id": "3886", "iata_code": "KLB", "city_iata_code": "KLB", "icao_code": "FLKL", "country_iso2": "ZM", "geoname_id": "7730507", "latitude": "-14.975833", "longitude": "22.644444", "airport_name": "Kalabo", "country_name": "Zambia", "phone_number": null, "timezone": "Africa/Lusaka"}, {"id": "6536661", "gmt": null, "airport_id": "3887", "iata_code": "KLC", "city_iata_code": "KLC", "icao_code": "GOOK", "country_iso2": "SN", "geoname_id": "2250806", "latitude": "14.083333", "longitude": "-16.5", "airport_name": "Kaolack", "country_name": "Senegal", "phone_number": null, "timezone": "Africa/Dakar"}, {"id": "6536662", "gmt": "3", "airport_id": "3888", "iata_code": "KLD", "city_iata_code": "KLD", "icao_code": "UUEM", "country_iso2": "RU", "geoname_id": "6301016", "latitude": "56.916668", "longitude": "35.916668", "airport_name": "Migalovo", "country_name": "Russia", "phone_number": null, "timezone": "Europe/Moscow"}, {"id": "6536663", "gmt": "1", "airport_id": "3889", "iata_code": "KLE", "city_iata_code": "KLE", "icao_code": "FKKH", "country_iso2": "CM", "geoname_id": "7730503", "latitude": "10.116667", "longitude": "14.45", "airport_name": "Kaele", "country_name": "Cameroon", "phone_number": null, "timezone": "Africa/Douala"}, {"id": "6536664", "gmt": "3", "airport_id": "3890", "iata_code": "KLF", "city_iata_code": "KLF", "icao_code": "UUBC", "country_iso2": "RU", "geoname_id": "8298670", "latitude": "54.5", "longitude": "36.266666", "airport_name": "Kaluga", "country_name": "Russia", "phone_number": null, "timezone": "Europe/Moscow"}, {"id": "6536665", "gmt": "-9", "airport_id": "3891", "iata_code": "KLG", "city_iata_code": "KLG", "icao_code": "PALG", "country_iso2": "US", "geoname_id": "5865720", "latitude": "61.53258", "longitude": "-160.3465", "airport_name": "Municipal", "country_name": "United States", "phone_number": null, "timezone": "America/Anchorage"}, {"id": "6536666", "gmt": "5.30", "airport_id": "3892", "iata_code": "KLH", "city_iata_code": "KLH", "icao_code": "VAKP", "country_iso2": "IN", "geoname_id": "6301041", "latitude": "16.666668", "longitude": "74.333336", "airport_name": "Kolhapur", "country_name": "India", "phone_number": null, "timezone": "Asia/Kolkata"}, {"id": "6536667", "gmt": "1", "airport_id": "3893", "iata_code": "KLI", "city_iata_code": "KLI", "icao_code": "FZFP", "country_iso2": "CD", "geoname_id": "7730560", "latitude": "-4.166667", "longitude": "21.75", "airport_name": "Kota Koli", "country_name": "Democratic Republic of the Congo", "phone_number": null, "timezone": "Africa/Kinshasa"}, {"id": "6536668", "gmt": "3", "airport_id": "3894", "iata_code": "KLK", "city_iata_code": "KLK", "icao_code": "HKFG", "country_iso2": "KE", "geoname_id": "7730613", "latitude": "-6.783333", "longitude": "25.783333", "airport_name": "Kalokol", "country_name": "Kenya", "phone_number": null, "timezone": "Africa/Nairobi"}, {"id": "6536671", "gmt": "-9", "airport_id": "3897", "iata_code": "KLN", "city_iata_code": "KLN", "icao_code": "PALB", "country_iso2": "US", "geoname_id": "5878746", "latitude": "57.533333", "longitude": "-154", "airport_name": "Larsen SPB", "country_name": "United States", "phone_number": null, "timezone": "America/Anchorage"}, {"id": "6536672", "gmt": "8", "airport_id": "3898", "iata_code": "KLO", "city_iata_code": "KLO", "icao_code": "RPVK", "country_iso2": "PH", "geoname_id": "1709634", "latitude": "11.687152", "longitude": "122.38183", "airport_name": "Kalibo", "country_name": "Philippines", "phone_number": null, "timezone": "Asia/Manila"}, {"id": "6536675", "gmt": "1", "airport_id": "3901", "iata_code": "KLR", "city_iata_code": "KLR", "icao_code": "ESMQ", "country_iso2": "SE", "geoname_id": "2702263", "latitude": "56.685", "longitude": "16.287222", "airport_name": "Kalmar", "country_name": "Sweden", "phone_number": null, "timezone": "Europe/Stockholm"}, {"id": "6536676", "gmt": "-8", "airport_id": "3902", "iata_code": "KLS", "city_iata_code": "KLS", "icao_code": "KKLS", "country_iso2": "US", "geoname_id": "5799574", "latitude": "46.15", "longitude": "-122.9", "airport_name": "Longview", "country_name": "United States", "phone_number": null, "timezone": "America/Los_Angeles"}, {"id": "6536678", "gmt": "1", "airport_id": "3904", "iata_code": "KLU", "city_iata_code": "KLU", "icao_code": "LOWK", "country_iso2": "AT", "geoname_id": "3218938", "latitude": "46.650124", "longitude": "14.324192", "airport_name": "Alpe Adria", "country_name": "Austria", "phone_number": null, "timezone": "Europe/Vienna"}, {"id": "6536679", "gmt": "1", "airport_id": "3905", "iata_code": "KLV", "city_iata_code": "KLV", "icao_code": "LKKV", "country_iso2": "CZ", "geoname_id": "6299649", "latitude": "50.2", "longitude": "12.916667", "airport_name": "Karlovy Vary", "country_name": "Czech Republic", "phone_number": null, "timezone": "Europe/Prague"}, {"id": "6536680", "gmt": "-9", "airport_id": "3906", "iata_code": "KLW", "city_iata_code": "KLW", "icao_code": "PAKW", "country_iso2": "US", "geoname_id": "5554568", "latitude": "55.555", "longitude": "-133.1", "airport_name": "Klawock", "country_name": "United States", "phone_number": null, "timezone": "America/Sitka"}, {"id": "6536681", "gmt": "2", "airport_id": "3907", "iata_code": "KLX", "city_iata_code": "KLX", "icao_code": "LGKL", "country_iso2": "GR", "geoname_id": "6299492", "latitude": "37.069443", "longitude": "22.027779", "airport_name": "Kalamata", "country_name": "Greece", "phone_number": null, "timezone": "Europe/Athens"}, {"id": "6536682", "gmt": "2", "airport_id": "3908", "iata_code": "KLY", "city_iata_code": "KLY", "icao_code": "FZOD", "country_iso2": "CD", "geoname_id": "7730564", "latitude": "-2.55", "longitude": "26.533333", "airport_name": "Kalima", "country_name": "Democratic Republic of the Congo", "phone_number": null, "timezone": "Africa/Lubumbashi"}, {"id": "6536684", "gmt": "10", "airport_id": "3910", "iata_code": "KMA", "city_iata_code": "KMA", "icao_code": "AYKM", "country_iso2": "PG", "geoname_id": "7668082", "latitude": "-7.961702", "longitude": "145.77155", "airport_name": "Kerema", "country_name": "Papua New Guinea", "phone_number": null, "timezone": "Pacific/Port_Moresby"}, {"id": "6536686", "gmt": "3", "airport_id": "3912", "iata_code": "KMC", "city_iata_code": "KMC", "icao_code": "OEKK", "country_iso2": "SA", "geoname_id": null, "latitude": "27.911282", "longitude": "45.523495", "airport_name": "King Khalid Military", "country_name": "Saudi Arabia", "phone_number": null, "timezone": "Asia/Riyadh"}, {"id": "6536687", "gmt": "2", "airport_id": "3913", "iata_code": "KME", "city_iata_code": "KME", "icao_code": "HRZA", "country_iso2": "RW", "geoname_id": "202137", "latitude": "-2.466667", "longitude": "28.916668", "airport_name": "Kamembe", "country_name": "Rwanda", "phone_number": null, "timezone": "Africa/Kigali"}, {"id": "6536689", "gmt": "8", "airport_id": "3915", "iata_code": "KMG", "city_iata_code": "KMG", "icao_code": "ZPPP", "country_iso2": "CN", "geoname_id": "6301378", "latitude": "25.101944", "longitude": "102.92917", "airport_name": "Kunming", "country_name": "China", "phone_number": null, "timezone": "Asia/Shanghai"}, {"id": "6536690", "gmt": "2", "airport_id": "3916", "iata_code": "KMH", "city_iata_code": "KMH", "icao_code": "FAKU", "country_iso2": "ZA", "geoname_id": "7730324", "latitude": "-27.466667", "longitude": "23.466667", "airport_name": "Kuruman", "country_name": "South Africa", "phone_number": null, "timezone": "Africa/Johannesburg"}, {"id": "6536691", "gmt": "9", "airport_id": "3917", "iata_code": "KMI", "city_iata_code": "KMI", "icao_code": "RJFM", "country_iso2": "JP", "geoname_id": "6300349", "latitude": "31.872498", "longitude": "131.44147", "airport_name": "Miyazaki", "country_name": "Japan", "phone_number": null, "timezone": "Asia/Tokyo"}, {"id": "6536692", "gmt": "9", "airport_id": "3918", "iata_code": "KMJ", "city_iata_code": "KMJ", "icao_code": "RJFT", "country_iso2": "JP", "geoname_id": "6300354", "latitude": "32.834133", "longitude": "130.85799", "airport_name": "Kumamoto", "country_name": "Japan", "phone_number": null, "timezone": "Asia/Tokyo"}, {"id": "6536693", "gmt": "1", "airport_id": "3919", "iata_code": "KMK", "city_iata_code": "KMK", "icao_code": "FCPA", "country_iso2": "CG", "geoname_id": "6296965", "latitude": "-3.483333", "longitude": "12.616667", "airport_name": "Makabana", "country_name": "Republic of the Congo", "phone_number": null, "timezone": "Africa/Brazzaville"}, {"id": "6536694", "gmt": "10", "airport_id": "3920", "iata_code": "KML", "city_iata_code": "KML", "icao_code": "YKML", "country_iso2": "AU", "geoname_id": "7731178", "latitude": "-19.366667", "longitude": "140.05", "airport_name": "Kamileroi", "country_name": "Australia", "phone_number": null, "timezone": "Australia/Brisbane"}, {"id": "6536696", "gmt": "2", "airport_id": "3922", "iata_code": "KMN", "city_iata_code": "KMN", "icao_code": "FZSA", "country_iso2": "CD", "geoname_id": "214611", "latitude": "-8.641111", "longitude": "25.25", "airport_name": "Kamina", "country_name": "Democratic Republic of the Congo", "phone_number": null, "timezone": "Africa/Lubumbashi"}, {"id": "6536697", "gmt": "-9", "airport_id": "3923", "iata_code": "KMO", "city_iata_code": "KMO", "icao_code": "PAMB", "country_iso2": "US", "geoname_id": "5868247", "latitude": "58.984444", "longitude": "-159.03583", "airport_name": "Manokotak SPB", "country_name": "United States", "phone_number": null, "timezone": "America/Anchorage"}, {"id": "6536698", "gmt": "2", "airport_id": "3924", "iata_code": "KMP", "city_iata_code": "KMP", "icao_code": "FYKT", "country_iso2": "NA", "geoname_id": "3356557", "latitude": "-26.533611", "longitude": "18.1", "airport_name": "J.G.H. Van Der Wath", "country_name": "Namibia", "phone_number": null, "timezone": "Africa/Windhoek"}, {"id": "6536699", "gmt": "9", "airport_id": "3925", "iata_code": "KMQ", "city_iata_code": "KMQ", "icao_code": "RJNK", "country_iso2": "JP", "geoname_id": "6300367", "latitude": "36.40237", "longitude": "136.41342", "airport_name": "Komatsu", "country_name": "Japan", "phone_number": null, "timezone": "Asia/Tokyo"}, {"id": "6536701", "gmt": null, "airport_id": "3927", "iata_code": "KMS", "city_iata_code": "KMS", "icao_code": "DGSI", "country_iso2": "GH", "geoname_id": "6296427", "latitude": "6.7125", "longitude": "-1.591111", "airport_name": "Kumasi", "country_name": "Ghana", "phone_number": null, "timezone": "Africa/Accra"}, {"id": "6536702", "gmt": "3", "airport_id": "3928", "iata_code": "KMU", "city_iata_code": "KMU", "icao_code": "HCMK", "country_iso2": "SO", "geoname_id": "7730089", "latitude": "-0.416667", "longitude": "42.841667", "airport_name": "Kismayu", "country_name": "Somalia", "phone_number": null, "timezone": "Africa/Mogadishu"}, {"id": "6536703", "gmt": "6.30", "airport_id": "3929", "iata_code": "KMV", "city_iata_code": "KMV", "icao_code": "VYKL", "country_iso2": "MM", "geoname_id": "7668657", "latitude": "23.183332", "longitude": "94.05", "airport_name": "Kalemyo", "country_name": null, "phone_number": null, "timezone": "Asia/Rangoon"}, {"id": "6536704", "gmt": "3", "airport_id": "3930", "iata_code": "KMW", "city_iata_code": "KMW", "icao_code": "UUBD", "country_iso2": "RU", "geoname_id": "7668547", "latitude": "57.75", "longitude": "40.933334", "airport_name": "Sokerkino", "country_name": "Russia", "phone_number": null, "timezone": "Europe/Moscow"}, {"id": "6536705", "gmt": "3", "airport_id": "3931", "iata_code": "KMX", "city_iata_code": "KMX", "icao_code": "OEKM", "country_iso2": "SA", "geoname_id": "6300020", "latitude": "18.3", "longitude": "42.716667", "airport_name": "Khamis Mushait", "country_name": "Saudi Arabia", "phone_number": null, "timezone": "Asia/Riyadh"}, {"id": "6536707", "gmt": "2", "airport_id": "3933", "iata_code": "KMZ", "city_iata_code": "KMZ", "icao_code": "FLKO", "country_iso2": "ZM", "geoname_id": "6297011", "latitude": "-14.798889", "longitude": "24.803333", "airport_name": "Kaoma", "country_name": "Zambia", "phone_number": null, "timezone": "Africa/Lusaka"}, {"id": "6536708", "gmt": "-4", "airport_id": "3934", "iata_code": "KNA", "city_iata_code": "KNA", "icao_code": "SCVM", "country_iso2": "CL", "geoname_id": "7730171", "latitude": "-33.033333", "longitude": "-71.566666", "airport_name": "Vina del Mar", "country_name": null, "phone_number": null, "timezone": "America/Santiago"}, {"id": "6536709", "gmt": "-7", "airport_id": "3935", "iata_code": "KNB", "city_iata_code": "KNB", "icao_code": "KKNB", "country_iso2": "US", "geoname_id": "5541462", "latitude": "37.05", "longitude": "-112.53333", "airport_name": "Kanab", "country_name": "United States", "phone_number": null, "timezone": "America/Denver"}, {"id": "6536710", "gmt": "2", "airport_id": "3936", "iata_code": "KND", "city_iata_code": "KND", "icao_code": "FZOA", "country_iso2": "CD", "geoname_id": "6297153", "latitude": "-2.9225", "longitude": "25.913889", "airport_name": "Kindu", "country_name": "Democratic Republic of the Congo", "phone_number": null, "timezone": "Africa/Lubumbashi"}, {"id": "6536712", "gmt": null, "airport_id": "3938", "iata_code": "KNF", "city_iata_code": "KNF", "icao_code": "EGYM", "country_iso2": "GB", "geoname_id": "6301529", "latitude": "52.75", "longitude": "0.4", "airport_name": "Marham RAF", "country_name": "United Kingdom", "phone_number": null, "timezone": "Europe/London"}, {"id": "6536713", "gmt": "9", "airport_id": "3939", "iata_code": "KNG", "city_iata_code": "KNG", "icao_code": "WASK", "country_iso2": "ID", "geoname_id": "6301206", "latitude": "-3.65", "longitude": "133.75", "airport_name": "Kaimana", "country_name": "Indonesia", "phone_number": null, "timezone": "Asia/Jayapura"}, {"id": "6536714", "gmt": "8", "airport_id": "3940", "iata_code": "KNH", "city_iata_code": "KNH", "icao_code": "RCBS", "country_iso2": "TW", "geoname_id": "6300290", "latitude": "24.420555", "longitude": "118.344444", "airport_name": "Shang-Yi", "country_name": "Taiwan", "phone_number": null, "timezone": "Asia/Taipei"}, {"id": "6536715", "gmt": "8", "airport_id": "3941", "iata_code": "KNI", "city_iata_code": "KNI", "icao_code": "YKNG", "country_iso2": "AU", "geoname_id": "7731179", "latitude": "-33.7", "longitude": "117.55", "airport_name": "Katanning", "country_name": "Australia", "phone_number": null, "timezone": "Australia/Perth"}, {"id": "6536716", "gmt": "1", "airport_id": "3942", "iata_code": "KNJ", "city_iata_code": "KNJ", "icao_code": "FCBK", "country_iso2": "CG", "geoname_id": "7730497", "latitude": "-3.95", "longitude": "14.516667", "airport_name": "Kindamba", "country_name": "Republic of the Congo", "phone_number": null, "timezone": "Africa/Brazzaville"}, {"id": "6536717", "gmt": "-9", "airport_id": "3943", "iata_code": "KNK", "city_iata_code": "KNK", "icao_code": "PFKK", "country_iso2": "US", "geoname_id": "5865649", "latitude": "59.433334", "longitude": "-154.85", "airport_name": "Kakhonak", "country_name": "United States", "phone_number": null, "timezone": "America/Anchorage"}, {"id": "6536718", "gmt": "2", "airport_id": "3944", "iata_code": "KNM", "city_iata_code": "KNM", "icao_code": "FZTK", "country_iso2": "CD", "geoname_id": "7730571", "latitude": "-7.516667", "longitude": "24.183332", "airport_name": "Kaniama", "country_name": "Democratic Republic of the Congo", "phone_number": null, "timezone": "Africa/Lubumbashi"}]}