{"pagination": {"offset": 2100, "limit": 100, "count": 100, "total": 6685}, "data": [{"id": "6535659", "gmt": "-5", "airport_id": "2885", "iata_code": "HCW", "city_iata_code": "HCW", "icao_code": "KCQW", "country_iso2": "US", "geoname_id": "4574417", "latitude": "34.7", "longitude": "-79.88333", "airport_name": "Cheraw", "country_name": "United States", "phone_number": null, "timezone": "America/New_York"}, {"id": "6535661", "gmt": "5", "airport_id": "2887", "iata_code": "HDD", "city_iata_code": "HDD", "icao_code": "OPKD", "country_iso2": "PK", "geoname_id": "6300112", "latitude": "25.322222", "longitude": "68.36389", "airport_name": "Hyderabad", "country_name": "Pakistan", "phone_number": null, "timezone": "Asia/Karachi"}, {"id": "6535662", "gmt": "-6", "airport_id": "2888", "iata_code": "HDE", "city_iata_code": "HDE", "icao_code": "KHDE", "country_iso2": "US", "geoname_id": "5070216", "latitude": "40.433334", "longitude": "-99.38333", "airport_name": "Brewster Field", "country_name": "United States", "phone_number": null, "timezone": "America/Chicago"}, {"id": "6535663", "gmt": "1", "airport_id": "2889", "iata_code": "HDF", "city_iata_code": "HDF", "icao_code": "EDAH", "country_iso2": "DE", "geoname_id": "6296506", "latitude": "53.87825", "longitude": "14.138242", "airport_name": "Heringsdorf", "country_name": "Germany", "phone_number": null, "timezone": "Europe/Berlin"}, {"id": "6535664", "gmt": "8", "airport_id": "2890", "iata_code": "HDG", "city_iata_code": "HDG", "icao_code": "ZBHD", "country_iso2": "CN", "geoname_id": "7910189", "latitude": "36.525833", "longitude": "114.425", "airport_name": "Handan", "country_name": "China", "phone_number": null, "timezone": "Asia/Shanghai"}, {"id": "6535666", "gmt": "3.30", "airport_id": "2892", "iata_code": "HDM", "city_iata_code": "HDM", "icao_code": "OIHS", "country_iso2": "IR", "geoname_id": "6300054", "latitude": "34.867146", "longitude": "48.53732", "airport_name": "Hamadan", "country_name": "Iran", "phone_number": null, "timezone": "Asia/Tehran"}, {"id": "6535667", "gmt": "-7", "airport_id": "2893", "iata_code": "HDN", "city_iata_code": "HDN", "icao_code": "KHDN", "country_iso2": "US", "geoname_id": "5583631", "latitude": "40.48481", "longitude": "-107.220764", "airport_name": "Yampa Valley", "country_name": "United States", "phone_number": null, "timezone": "America/Denver"}, {"id": "6535668", "gmt": "3.30", "airport_id": "2894", "iata_code": "HDR", "city_iata_code": "HDR", "icao_code": "OIKP", "country_iso2": "IR", "geoname_id": "7730744", "latitude": "27.05", "longitude": "56.166668", "airport_name": "Havadarya", "country_name": "Iran", "phone_number": null, "timezone": "Asia/Tehran"}, {"id": "6535669", "gmt": "2", "airport_id": "2895", "iata_code": "HDS", "city_iata_code": "HDS", "icao_code": "FAHS", "country_iso2": "ZA", "geoname_id": "6296898", "latitude": "-24.35", "longitude": "30.95", "airport_name": "Hoedspruit Airport", "country_name": "South Africa", "phone_number": null, "timezone": "Africa/Johannesburg"}, {"id": "6535670", "gmt": "7", "airport_id": "2896", "iata_code": "HDY", "city_iata_code": "HDY", "icao_code": "VTSS", "country_iso2": "TH", "geoname_id": "1610780", "latitude": "6.936764", "longitude": "100.39356", "airport_name": "Hat Yai", "country_name": "Thailand", "phone_number": null, "timezone": "Asia/Bangkok"}, {"id": "6535671", "gmt": "4.30", "airport_id": "2897", "iata_code": "HEA", "city_iata_code": "HEA", "icao_code": "OAHR", "country_iso2": "AF", "geoname_id": null, "latitude": "34.212696", "longitude": "62.22599", "airport_name": "Herat", "country_name": "Afghanistan", "phone_number": null, "timezone": "Asia/Kabul"}, {"id": "6535674", "gmt": "-6", "airport_id": "2900", "iata_code": "HEE", "city_iata_code": "HEE", "icao_code": "KHEE", "country_iso2": "US", "geoname_id": "4133499", "latitude": "34.533333", "longitude": "-90.6", "airport_name": "Thompson-Robbins", "country_name": "United States", "phone_number": null, "timezone": "America/Chicago"}, {"id": "6535675", "gmt": "6.30", "airport_id": "2901", "iata_code": "HEH", "city_iata_code": "HEH", "icao_code": "VYHH", "country_iso2": "MM", "geoname_id": "7668655", "latitude": "20.743862", "longitude": "96.79341", "airport_name": "Heho", "country_name": null, "phone_number": null, "timezone": "Asia/Rangoon"}, {"id": "6535677", "gmt": "8", "airport_id": "2903", "iata_code": "HEK", "city_iata_code": "HEK", "icao_code": "ZYHE", "country_iso2": "CN", "geoname_id": "7730308", "latitude": "50.216667", "longitude": "127.433334", "airport_name": "Heihe", "country_name": "China", "phone_number": null, "timezone": "Asia/Shanghai"}, {"id": "6535678", "gmt": "2", "airport_id": "2904", "iata_code": "HEL", "city_iata_code": "HEL", "icao_code": "EFHK", "country_iso2": "FI", "geoname_id": "6301511", "latitude": "60.31795", "longitude": "24.96645", "airport_name": "Helsinki-vantaa", "country_name": "Finland", "phone_number": "+358 20-708-0", "timezone": "Europe/Helsinki"}, {"id": "6535679", "gmt": "2", "airport_id": "2905", "iata_code": "HEM", "city_iata_code": "HEL", "icao_code": "EFHF", "country_iso2": "FI", "geoname_id": "6296539", "latitude": "60.25", "longitude": "25.05", "airport_name": "Helsinki-malmi", "country_name": "Finland", "phone_number": null, "timezone": "Europe/Helsinki"}, {"id": "6535682", "gmt": "2", "airport_id": "2908", "iata_code": "HER", "city_iata_code": "HER", "icao_code": "LGIR", "country_iso2": "GR", "geoname_id": "6299488", "latitude": "35.33663", "longitude": "25.174192", "airport_name": "Nikos Kazantzakis Airport", "country_name": "Greece", "phone_number": "+30 (0) 2810", "timezone": "Europe/Athens"}, {"id": "6535683", "gmt": "-8", "airport_id": "2909", "iata_code": "HES", "city_iata_code": "HES", "icao_code": "KHRI", "country_iso2": "US", "geoname_id": "5731070", "latitude": "45.85", "longitude": "-119.28333", "airport_name": "State", "country_name": "United States", "phone_number": null, "timezone": "America/Los_Angeles"}, {"id": "6535684", "gmt": "8", "airport_id": "2910", "iata_code": "HET", "city_iata_code": "HET", "icao_code": "ZBHH", "country_iso2": "CN", "geoname_id": "6301355", "latitude": "40.854713", "longitude": "111.814156", "airport_name": "Hohhot", "country_name": "China", "phone_number": null, "timezone": "Asia/Shanghai"}, {"id": "6535687", "gmt": "-6", "airport_id": "2913", "iata_code": "HEZ", "city_iata_code": "HEZ", "icao_code": "KHEZ", "country_iso2": "US", "geoname_id": "4437982", "latitude": "31.614721", "longitude": "-91.29639", "airport_name": "Hardy-Anders", "country_name": "United States", "phone_number": null, "timezone": "America/Chicago"}, {"id": "6535688", "gmt": "2", "airport_id": "2914", "iata_code": "HFA", "city_iata_code": "HFA", "icao_code": "LLHA", "country_iso2": "IL", "geoname_id": "6299659", "latitude": "32.81182", "longitude": "35.04018", "airport_name": "Haifa", "country_name": "Israel", "phone_number": null, "timezone": "Asia/Jerusalem"}, {"id": "6535689", "gmt": "-5", "airport_id": "2915", "iata_code": "HFD", "city_iata_code": "HFD", "icao_code": "KHFD", "country_iso2": "US", "geoname_id": "4835842", "latitude": "41.733055", "longitude": "-72.65", "airport_name": "Brainard", "country_name": "United States", "phone_number": null, "timezone": "America/New_York"}, {"id": "6535690", "gmt": "8", "airport_id": "2916", "iata_code": "HFE", "city_iata_code": "HFE", "icao_code": "ZSOF", "country_iso2": "CN", "geoname_id": "1808722", "latitude": "31.85", "longitude": "117.28333", "airport_name": "Shanghai", "country_name": "China", "phone_number": null, "timezone": "Asia/Shanghai"}, {"id": "6535692", "gmt": null, "airport_id": "2918", "iata_code": "HFN", "city_iata_code": "HFN", "icao_code": "BIHN", "country_iso2": "IS", "geoname_id": "6295709", "latitude": "64.28333", "longitude": "-15.266667", "airport_name": "Hornafjordur", "country_name": "Iceland", "phone_number": null, "timezone": "Atlantic/Reykjavik"}, {"id": "6535693", "gmt": "1", "airport_id": "2919", "iata_code": "HFS", "city_iata_code": "HFS", "icao_code": "ESOH", "country_iso2": "SE", "geoname_id": "7730070", "latitude": "60.0175", "longitude": "13.569167", "airport_name": "Hagfors", "country_name": "Sweden", "phone_number": null, "timezone": "Europe/Stockholm"}, {"id": "6535694", "gmt": "1", "airport_id": "2920", "iata_code": "HFT", "city_iata_code": "HFT", "icao_code": "ENHF", "country_iso2": "NO", "geoname_id": "6296742", "latitude": "70.67999", "longitude": "23.675867", "airport_name": "Hammerfest", "country_name": "Norway", "phone_number": null, "timezone": "Europe/Oslo"}, {"id": "6535695", "gmt": "3", "airport_id": "2921", "iata_code": "HGA", "city_iata_code": "HGA", "icao_code": "HCMH", "country_iso2": "SO", "geoname_id": "6297284", "latitude": "9.515833", "longitude": "44.091667", "airport_name": "Hargeisa", "country_name": "Somalia", "phone_number": null, "timezone": "Africa/Mogadishu"}, {"id": "6535696", "gmt": "10", "airport_id": "2922", "iata_code": "HGD", "city_iata_code": "HGD", "icao_code": "YHUG", "country_iso2": "AU", "geoname_id": "7731083", "latitude": "-20.81889", "longitude": "144.22444", "airport_name": "Hughenden", "country_name": "Australia", "phone_number": null, "timezone": "Australia/Brisbane"}, {"id": "6535697", "gmt": "8", "airport_id": "2923", "iata_code": "HGH", "city_iata_code": "HGH", "icao_code": "ZSHC", "country_iso2": "CN", "geoname_id": "6301383", "latitude": "30.236935", "longitude": "120.43236", "airport_name": "Hangzhou", "country_name": "China", "phone_number": null, "timezone": "Asia/Shanghai"}, {"id": "6535699", "gmt": "1", "airport_id": "2925", "iata_code": "HGL", "city_iata_code": "HGL", "icao_code": "EDXH", "country_iso2": "DE", "geoname_id": "3208576", "latitude": "54.186943", "longitude": "7.916667", "airport_name": "Helgoland", "country_name": "Germany", "phone_number": null, "timezone": "Europe/Berlin"}, {"id": "6535700", "gmt": "7", "airport_id": "2926", "iata_code": "HGN", "city_iata_code": "HGN", "icao_code": "VTCH", "country_iso2": "TH", "geoname_id": "1152222", "latitude": "19.29968", "longitude": "97.97523", "airport_name": "Mae Hong Son", "country_name": "Thailand", "phone_number": null, "timezone": "Asia/Bangkok"}, {"id": "6535701", "gmt": null, "airport_id": "2927", "iata_code": "HGO", "city_iata_code": "HGO", "icao_code": "DIKO", "country_iso2": "CI", "geoname_id": "6296439", "latitude": "9.413889", "longitude": "-5.616667", "airport_name": "Korhogo", "country_name": null, "phone_number": null, "timezone": "Africa/Abidjan"}, {"id": "6535702", "gmt": "-5", "airport_id": "2928", "iata_code": "HGR", "city_iata_code": "HGR", "icao_code": "KHGR", "country_iso2": "US", "geoname_id": "4372788", "latitude": "39.70778", "longitude": "-77.73", "airport_name": "Wash. County Regional", "country_name": "United States", "phone_number": null, "timezone": "America/New_York"}, {"id": "6535703", "gmt": null, "airport_id": "2929", "iata_code": "HGS", "city_iata_code": "FNA", "icao_code": "GFHA", "country_iso2": "SL", "geoname_id": "7730577", "latitude": "8.393056", "longitude": "-13.13", "airport_name": "Hastings", "country_name": "Sierra Leone", "phone_number": null, "timezone": "Africa/Freetown"}, {"id": "6535705", "gmt": "10", "airport_id": "2931", "iata_code": "HGU", "city_iata_code": "HGU", "icao_code": "AYMH", "country_iso2": "PG", "geoname_id": "7668084", "latitude": "-5.828767", "longitude": "144.29738", "airport_name": "Kagamuga", "country_name": "Papua New Guinea", "phone_number": null, "timezone": "Pacific/Port_Moresby"}, {"id": "6535708", "gmt": "-5", "airport_id": "2934", "iata_code": "HHH", "city_iata_code": "HHH", "icao_code": "KHXD", "country_iso2": "US", "geoname_id": "4581827", "latitude": "32.216667", "longitude": "-80.683334", "airport_name": "Hilton Head", "country_name": "United States", "phone_number": null, "timezone": "America/New_York"}, {"id": "6535710", "gmt": "1", "airport_id": "2936", "iata_code": "HHN", "city_iata_code": "FRA", "icao_code": "EDFH", "country_iso2": "DE", "geoname_id": "6296512", "latitude": "49.948334", "longitude": "7.264167", "airport_name": "Frankfurt-Hahn", "country_name": "Germany", "phone_number": null, "timezone": "Europe/Berlin"}, {"id": "6535712", "gmt": "7", "airport_id": "2938", "iata_code": "HHQ", "city_iata_code": "HHQ", "icao_code": "VTPH", "country_iso2": "TH", "geoname_id": "6301146", "latitude": "12.6274", "longitude": "99.95145", "airport_name": "Hua Hin Airport", "country_name": "Thailand", "phone_number": null, "timezone": "Asia/Bangkok"}, {"id": "6535715", "gmt": "-10", "airport_id": "2941", "iata_code": "HHZ", "city_iata_code": "HHZ", "icao_code": "NTGH", "country_iso2": "PF", "geoname_id": "7730696", "latitude": "-17.533333", "longitude": "-142.53334", "airport_name": "Hikueru", "country_name": "French Polynesia", "phone_number": null, "timezone": "Pacific/Tahiti"}, {"id": "6535716", "gmt": "8", "airport_id": "2942", "iata_code": "HIA", "city_iata_code": "HIA", "icao_code": "ZSSH", "country_iso2": "CN", "geoname_id": "7910482", "latitude": "33.7875", "longitude": "119.12778", "airport_name": "Lianshui", "country_name": "China", "phone_number": null, "timezone": "Asia/Shanghai"}, {"id": "6535717", "gmt": "-6", "airport_id": "2943", "iata_code": "HIB", "city_iata_code": "HIB", "icao_code": "KHIB", "country_iso2": "US", "geoname_id": "5030005", "latitude": "47.38861", "longitude": "-92.83861", "airport_name": "Chisholm", "country_name": "United States", "phone_number": null, "timezone": "America/Chicago"}, {"id": "6535718", "gmt": "10", "airport_id": "2944", "iata_code": "HID", "city_iata_code": "HID", "icao_code": "YHID", "country_iso2": "AU", "geoname_id": "7668720", "latitude": "-10.583333", "longitude": "142.28334", "airport_name": "Horn Island", "country_name": "Australia", "phone_number": null, "timezone": "Australia/Brisbane"}, {"id": "6535719", "gmt": "-5", "airport_id": "2945", "iata_code": "HIE", "city_iata_code": "HIE", "icao_code": "KHIE", "country_iso2": "US", "geoname_id": "5094647", "latitude": "44.365833", "longitude": "-71.548615", "airport_name": "Mt Washington Regional Airport", "country_name": "United States", "phone_number": null, "timezone": "America/New_York"}, {"id": "6535723", "gmt": "-7", "airport_id": "2949", "iata_code": "HII", "city_iata_code": "HII", "icao_code": "KHII", "country_iso2": "US", "geoname_id": "5301389", "latitude": "34.568333", "longitude": "-114.35528", "airport_name": "Municipal", "country_name": "United States", "phone_number": null, "timezone": "America/Phoenix"}, {"id": "6535724", "gmt": "9", "airport_id": "2950", "iata_code": "HIJ", "city_iata_code": "HIJ", "icao_code": "RJOA", "country_iso2": "JP", "geoname_id": "6300371", "latitude": "34.43611", "longitude": "132.91945", "airport_name": "Hiroshima Airport", "country_name": "Japan", "phone_number": null, "timezone": "Asia/Tokyo"}, {"id": "6535727", "gmt": "5.30", "airport_id": "2953", "iata_code": "HIM", "city_iata_code": "HIM", "icao_code": "VCCH", "country_iso2": "LK", "geoname_id": "1244108", "latitude": "8.05", "longitude": "80.97111", "airport_name": "Hingurakgoda", "country_name": "Sri Lanka", "phone_number": null, "timezone": "Asia/Colombo"}, {"id": "6535728", "gmt": "9", "airport_id": "2954", "iata_code": "HIN", "city_iata_code": "HIN", "icao_code": "RKPS", "country_iso2": "KR", "geoname_id": "6300426", "latitude": "35.09263", "longitude": "128.08676", "airport_name": "Sacheon", "country_name": "South Korea", "phone_number": null, "timezone": "Asia/Seoul"}, {"id": "6535729", "gmt": "-8", "airport_id": "2955", "iata_code": "HIO", "city_iata_code": "HIO", "icao_code": "KHIO", "country_iso2": "US", "geoname_id": "5746578", "latitude": "45.516666", "longitude": "-122.98333", "airport_name": "Portland", "country_name": "United States", "phone_number": null, "timezone": "America/Los_Angeles"}, {"id": "6535730", "gmt": "10", "airport_id": "2956", "iata_code": "HIP", "city_iata_code": "HIP", "icao_code": "YHDY", "country_iso2": "AU", "geoname_id": "7731086", "latitude": "-21.316668", "longitude": "138.28334", "airport_name": "Headingly", "country_name": "Australia", "phone_number": null, "timezone": "Australia/Brisbane"}, {"id": "6535731", "gmt": "11", "airport_id": "2957", "iata_code": "HIR", "city_iata_code": "HIR", "icao_code": "AGGH", "country_iso2": "SB", "geoname_id": "6295679", "latitude": "-9.428592", "longitude": "160.04819", "airport_name": "Henderson International", "country_name": "Solomon Islands", "phone_number": null, "timezone": "Pacific/Guadalcanal"}, {"id": "6535732", "gmt": "10", "airport_id": "2958", "iata_code": "HIS", "city_iata_code": "HIS", "icao_code": "YHYN", "country_iso2": "AU", "geoname_id": "7731087", "latitude": "-20.066668", "longitude": "148.86667", "airport_name": "Hayman Island", "country_name": "Australia", "phone_number": null, "timezone": "Australia/Lindeman"}, {"id": "6535734", "gmt": "9", "airport_id": "2960", "iata_code": "HIW", "city_iata_code": "HIJ", "icao_code": "RJBH", "country_iso2": "JP", "geoname_id": "6300318", "latitude": "34.36361", "longitude": "132.41638", "airport_name": "Hiroshima West", "country_name": "Japan", "phone_number": null, "timezone": "Asia/Tokyo"}, {"id": "6535735", "gmt": "8", "airport_id": "2961", "iata_code": "HJJ", "city_iata_code": "HJJ", "icao_code": "ZGCJ", "country_iso2": "CN", "geoname_id": "7910384", "latitude": "27.44139", "longitude": "109.69972", "airport_name": "Zhi Jiang", "country_name": "China", "phone_number": null, "timezone": "Asia/Shanghai"}, {"id": "6535736", "gmt": "5.30", "airport_id": "2962", "iata_code": "HJR", "city_iata_code": "HJR", "icao_code": "VAKJ", "country_iso2": "IN", "geoname_id": "7668574", "latitude": "24.818747", "longitude": "79.91642", "airport_name": "Khajuraho", "country_name": "India", "phone_number": null, "timezone": "Asia/Kolkata"}, {"id": "6535737", "gmt": "8", "airport_id": "2963", "iata_code": "HJT", "city_iata_code": "HJT", "icao_code": "ZMHU", "country_iso2": "MN", "geoname_id": "8260990", "latitude": "46.9", "longitude": "102.76667", "airport_name": "Khujirt", "country_name": "Mongolia", "phone_number": null, "timezone": "Asia/Ulaanbaatar"}, {"id": "6535738", "gmt": "-6", "airport_id": "2964", "iata_code": "HKA", "city_iata_code": "BYH", "icao_code": "KHKA", "country_iso2": "US", "geoname_id": "4102416", "latitude": "35.933334", "longitude": "-89.916664", "airport_name": "Municipal", "country_name": "United States", "phone_number": null, "timezone": "America/Chicago"}, {"id": "6535739", "gmt": "-9", "airport_id": "2965", "iata_code": "HKB", "city_iata_code": "HKB", "icao_code": "PAHV", "country_iso2": "US", "geoname_id": "5863860", "latitude": "63.86667", "longitude": "-148.96666", "airport_name": "Healy Lake", "country_name": "United States", "phone_number": null, "timezone": "America/Anchorage"}, {"id": "6535740", "gmt": "9", "airport_id": "2966", "iata_code": "HKD", "city_iata_code": "HKD", "icao_code": "RJCH", "country_iso2": "JP", "geoname_id": "6300323", "latitude": "41.776127", "longitude": "140.81581", "airport_name": "Hakodate", "country_name": "Japan", "phone_number": null, "timezone": "Asia/Tokyo"}, {"id": "6535741", "gmt": "8", "airport_id": "2967", "iata_code": "HKG", "city_iata_code": "HKG", "icao_code": "VHHH", "country_iso2": "HK", "geoname_id": "6301089", "latitude": "22.315248", "longitude": "113.93649", "airport_name": "Hong Kong International", "country_name": "Hong Kong", "phone_number": "+852 2181 888", "timezone": "Asia/Hong_Kong"}, {"id": "6535742", "gmt": "12", "airport_id": "2968", "iata_code": "HKK", "city_iata_code": "HKK", "icao_code": "NZHK", "country_iso2": "NZ", "geoname_id": "6299986", "latitude": "-42.714912", "longitude": "170.98346", "airport_name": "Hokitika Airport", "country_name": "New Zealand", "phone_number": null, "timezone": "Pacific/Auckland"}, {"id": "6535743", "gmt": "10", "airport_id": "2969", "iata_code": "HKN", "city_iata_code": "HKN", "icao_code": "AYHK", "country_iso2": "PG", "geoname_id": "7668080", "latitude": "-5.456876", "longitude": "150.403", "airport_name": "Hoskins", "country_name": "Papua New Guinea", "phone_number": null, "timezone": "Pacific/Port_Moresby"}, {"id": "6535744", "gmt": "-6", "airport_id": "2970", "iata_code": "HKS", "city_iata_code": "JAN", "icao_code": "KHKS", "country_iso2": "US", "geoname_id": "4429321", "latitude": "32.3", "longitude": "-90.2", "airport_name": "Hawkins Field", "country_name": "United States", "phone_number": null, "timezone": "America/Chicago"}, {"id": "6535745", "gmt": "7", "airport_id": "2971", "iata_code": "HKT", "city_iata_code": "HKT", "icao_code": "VTSP", "country_iso2": "TH", "geoname_id": "6301157", "latitude": "8.107619", "longitude": "98.306435", "airport_name": "Phuket International", "country_name": "Thailand", "phone_number": null, "timezone": "Asia/Bangkok"}, {"id": "6535746", "gmt": "2", "airport_id": "2972", "iata_code": "HKV", "city_iata_code": "HKV", "icao_code": "LB14", "country_iso2": "BG", "geoname_id": "7731088", "latitude": "41.933334", "longitude": "25.55", "airport_name": "Haskovo", "country_name": "Bulgaria", "phone_number": null, "timezone": "Europe/Sofia"}, {"id": "6535747", "gmt": "-5", "airport_id": "2973", "iata_code": "HKY", "city_iata_code": "HKY", "icao_code": "KHKY", "country_iso2": "US", "geoname_id": "4470872", "latitude": "35.73861", "longitude": "-81.39167", "airport_name": "Hickory", "country_name": "United States", "phone_number": null, "timezone": "America/New_York"}, {"id": "6535748", "gmt": "2", "airport_id": "2974", "iata_code": "HLA", "city_iata_code": "JNB", "icao_code": "FALA", "country_iso2": "ZA", "geoname_id": "6296903", "latitude": "-25.937843", "longitude": "27.926432", "airport_name": "Lanseria", "country_name": "South Africa", "phone_number": null, "timezone": "Africa/Johannesburg"}, {"id": "6535750", "gmt": "-6", "airport_id": "2976", "iata_code": "HLC", "city_iata_code": "HLC", "icao_code": "KHLC", "country_iso2": "US", "geoname_id": "4272984", "latitude": "39.36667", "longitude": "-99.85", "airport_name": "Hill City", "country_name": "United States", "phone_number": null, "timezone": "America/Chicago"}, {"id": "6535751", "gmt": "8", "airport_id": "2977", "iata_code": "HLD", "city_iata_code": "HLD", "icao_code": "ZBLA", "country_iso2": "CN", "geoname_id": "7668789", "latitude": "49.209873", "longitude": "119.80654", "airport_name": "Hailar", "country_name": "China", "phone_number": null, "timezone": "Asia/Shanghai"}, {"id": "6535752", "gmt": "1", "airport_id": "2978", "iata_code": "HLF", "city_iata_code": "HLF", "icao_code": "ESSF", "country_iso2": "SE", "geoname_id": "6296815", "latitude": "57.52639", "longitude": "15.827778", "airport_name": "Hultsfred - Vimmerby", "country_name": "Sweden", "phone_number": null, "timezone": "Europe/Stockholm"}, {"id": "6535754", "gmt": "8", "airport_id": "2980", "iata_code": "HLH", "city_iata_code": "HLH", "icao_code": "ZBUL", "country_iso2": "CN", "geoname_id": "7731089", "latitude": "46.19349", "longitude": "122.00148", "airport_name": "Ulanhot", "country_name": "China", "phone_number": null, "timezone": "Asia/Shanghai"}, {"id": "6535755", "gmt": "-8", "airport_id": "2981", "iata_code": "HLI", "city_iata_code": "HLI", "icao_code": "KCVH", "country_iso2": "US", "geoname_id": "5357499", "latitude": "36.85", "longitude": "-121.4", "airport_name": "Hollister", "country_name": "United States", "phone_number": null, "timezone": "America/Los_Angeles"}, {"id": "6535757", "gmt": "-5", "airport_id": "2983", "iata_code": "HLM", "city_iata_code": "HLM", "icao_code": "KHLM", "country_iso2": "US", "geoname_id": "5004982", "latitude": "42.783333", "longitude": "-86.11667", "airport_name": "Park Township", "country_name": "United States", "phone_number": null, "timezone": "America/Detroit"}, {"id": "6535758", "gmt": "-7", "airport_id": "2984", "iata_code": "HLN", "city_iata_code": "HLN", "icao_code": "KHLN", "country_iso2": "US", "geoname_id": "5656905", "latitude": "46.61052", "longitude": "-111.99018", "airport_name": "Helena", "country_name": "United States", "phone_number": null, "timezone": "America/Denver"}, {"id": "6535759", "gmt": "7", "airport_id": "2985", "iata_code": "HLP", "city_iata_code": "JKT", "icao_code": "WIIH", "country_iso2": "ID", "geoname_id": "6301224", "latitude": "-6.268056", "longitude": "106.89028", "airport_name": "Halim Perdana Kusuma", "country_name": "Indonesia", "phone_number": null, "timezone": "Asia/Jakarta"}, {"id": "6535761", "gmt": "10", "airport_id": "2987", "iata_code": "HLS", "city_iata_code": "HLS", "icao_code": "YSTH", "country_iso2": "AU", "geoname_id": "7668773", "latitude": "-41.266666", "longitude": "148.25", "airport_name": "St Helens", "country_name": "Australia", "phone_number": null, "timezone": "Australia/Hobart"}, {"id": "6535762", "gmt": "10", "airport_id": "2988", "iata_code": "HLT", "city_iata_code": "HLT", "icao_code": "YHML", "country_iso2": "AU", "geoname_id": "7730260", "latitude": "-37.65", "longitude": "142.06056", "airport_name": "Hamilton", "country_name": "Australia", "phone_number": null, "timezone": "Australia/Melbourne"}, {"id": "6535767", "gmt": "12", "airport_id": "2993", "iata_code": "HLZ", "city_iata_code": "HLZ", "icao_code": "NZHN", "country_iso2": "NZ", "geoname_id": "6240808", "latitude": "-37.86622", "longitude": "175.33603", "airport_name": "Hamilton", "country_name": "New Zealand", "phone_number": null, "timezone": "Pacific/Auckland"}, {"id": "6535768", "gmt": "5", "airport_id": "2994", "iata_code": "HMA", "city_iata_code": "HMA", "icao_code": "USHH", "country_iso2": "RU", "geoname_id": "6301000", "latitude": "61.02613", "longitude": "69.09714", "airport_name": "Khanty-Mansiysk", "country_name": "Russia", "phone_number": null, "timezone": "Asia/Yekaterinburg"}, {"id": "6535769", "gmt": "2", "airport_id": "2995", "iata_code": "HMB", "city_iata_code": "HMB", "icao_code": "HEMK", "country_iso2": "EG", "geoname_id": "7910488", "latitude": "26.338877", "longitude": "31.737167", "airport_name": "Mubarak International", "country_name": "Egypt", "phone_number": null, "timezone": "Africa/Cairo"}, {"id": "6535770", "gmt": "1", "airport_id": "2996", "iata_code": "HME", "city_iata_code": "HME", "icao_code": "DAUH", "country_iso2": "DZ", "geoname_id": "6296390", "latitude": "31.675303", "longitude": "6.145436", "airport_name": "Oued Irara Airport", "country_name": null, "phone_number": null, "timezone": "Africa/Algiers"}, {"id": "6535771", "gmt": "9.30", "airport_id": "2997", "iata_code": "HMG", "city_iata_code": "HMG", "icao_code": "YHMB", "country_iso2": "AU", "geoname_id": "7731091", "latitude": "-23.95", "longitude": "132.75", "airport_name": "Hermannsburg", "country_name": "Australia", "phone_number": null, "timezone": "Australia/Darwin"}, {"id": "6535772", "gmt": "8", "airport_id": "2998", "iata_code": "HMI", "city_iata_code": "HMI", "icao_code": "ZWHM", "country_iso2": "CN", "geoname_id": "6301393", "latitude": "42.916668", "longitude": "93.416664", "airport_name": "Hami", "country_name": "China", "phone_number": null, "timezone": "Asia/Shanghai"}, {"id": "6535773", "gmt": "2", "airport_id": "2999", "iata_code": "HMJ", "city_iata_code": "HMJ", "icao_code": "UKLH", "country_iso2": "UA", "geoname_id": "7730188", "latitude": "49.416668", "longitude": "27", "airport_name": "Khmelnitskiy", "country_name": "Ukraine", "phone_number": null, "timezone": "Europe/Kiev"}, {"id": "6535775", "gmt": "-7", "airport_id": "3001", "iata_code": "HMO", "city_iata_code": "HMO", "icao_code": "MMHO", "country_iso2": "MX", "geoname_id": "6299845", "latitude": "29.089905", "longitude": "-111.051704", "airport_name": "Gen Pesqueira Garcia", "country_name": "Mexico", "phone_number": null, "timezone": "America/Hermosillo"}, {"id": "6535776", "gmt": "1", "airport_id": "3002", "iata_code": "HMR", "city_iata_code": "HMR", "icao_code": "ENHA", "country_iso2": "NO", "geoname_id": "7668223", "latitude": "60.8", "longitude": "11.116667", "airport_name": "Hamar Airport", "country_name": "Norway", "phone_number": null, "timezone": "Europe/Oslo"}, {"id": "6535778", "gmt": "-8", "airport_id": "3004", "iata_code": "HMT", "city_iata_code": "HMT", "icao_code": "KHMT", "country_iso2": "US", "geoname_id": "5356297", "latitude": "33.733334", "longitude": "-117.025", "airport_name": "Ryan Field", "country_name": "United States", "phone_number": null, "timezone": "America/Los_Angeles"}, {"id": "6535779", "gmt": "1", "airport_id": "3005", "iata_code": "HMV", "city_iata_code": "HMV", "icao_code": "ESUT", "country_iso2": "SE", "geoname_id": null, "latitude": "65.727776", "longitude": "15.273056", "airport_name": "Hemavan", "country_name": "Sweden", "phone_number": null, "timezone": "Europe/Stockholm"}, {"id": "6535780", "gmt": "9", "airport_id": "3006", "iata_code": "HNA", "city_iata_code": "HNA", "icao_code": "RJSI", "country_iso2": "JP", "geoname_id": "6300393", "latitude": "39.426926", "longitude": "141.13077", "airport_name": "Hanamaki", "country_name": "Japan", "phone_number": null, "timezone": "Asia/Tokyo"}, {"id": "6535782", "gmt": "-5", "airport_id": "3008", "iata_code": "HNC", "city_iata_code": "HNC", "icao_code": "KHSE", "country_iso2": "US", "geoname_id": "4470225", "latitude": "35.216667", "longitude": "-75.7", "airport_name": "Hatteras", "country_name": "United States", "phone_number": null, "timezone": "America/New_York"}, {"id": "6535783", "gmt": "9", "airport_id": "3009", "iata_code": "HND", "city_iata_code": "TYO", "icao_code": "RJTT", "country_iso2": "JP", "geoname_id": "6300412", "latitude": "35.54907", "longitude": "139.78453", "airport_name": "Haneda Airport", "country_name": "Japan", "phone_number": "+81 03-5757-8", "timezone": "Asia/Tokyo"}, {"id": "6535786", "gmt": "-9", "airport_id": "3012", "iata_code": "HNH", "city_iata_code": "HNH", "icao_code": "PAOH", "country_iso2": "US", "geoname_id": "5847155", "latitude": "58.098057", "longitude": "-135.40334", "airport_name": "Hoonah", "country_name": "United States", "phone_number": null, "timezone": "America/Juneau"}, {"id": "6535788", "gmt": "-10", "airport_id": "3014", "iata_code": "HNL", "city_iata_code": "HNL", "icao_code": "PHNL", "country_iso2": "US", "geoname_id": "5856213", "latitude": "21.325832", "longitude": "-157.92166", "airport_name": "Honolulu International", "country_name": "United States", "phone_number": "808-836-6411", "timezone": "Pacific/Honolulu"}, {"id": "6535789", "gmt": "-10", "airport_id": "3015", "iata_code": "HNM", "city_iata_code": "HNM", "icao_code": "PHHN", "country_iso2": "US", "geoname_id": "5855412", "latitude": "20.795834", "longitude": "-156.01889", "airport_name": "Hana", "country_name": "United States", "phone_number": null, "timezone": "Pacific/Honolulu"}, {"id": "6535791", "gmt": "-9", "airport_id": "3017", "iata_code": "HNS", "city_iata_code": "HNS", "icao_code": "KHNS", "country_iso2": "US", "geoname_id": "5846899", "latitude": "59.245834", "longitude": "-135.51889", "airport_name": "Municipal", "country_name": "United States", "phone_number": null, "timezone": "America/Juneau"}, {"id": "6535793", "gmt": "8", "airport_id": "3019", "iata_code": "HNY", "city_iata_code": "HNY", "icao_code": "ZGHY", "country_iso2": "CN", "geoname_id": "7731092", "latitude": "26.85", "longitude": "112.5", "airport_name": "Hengyang", "country_name": "China", "phone_number": null, "timezone": "Asia/Shanghai"}, {"id": "6535794", "gmt": "3", "airport_id": "3020", "iata_code": "HOA", "city_iata_code": "HOA", "icao_code": "HKHO", "country_iso2": "KE", "geoname_id": "196752", "latitude": "-1", "longitude": "40", "airport_name": "Hola", "country_name": "Kenya", "phone_number": null, "timezone": "Africa/Nairobi"}, {"id": "6535795", "gmt": "-7", "airport_id": "3021", "iata_code": "HOB", "city_iata_code": "HOB", "icao_code": "KHOB", "country_iso2": "US", "geoname_id": "5471579", "latitude": "32.68861", "longitude": "-103.21694", "airport_name": "Lea County", "country_name": "United States", "phone_number": null, "timezone": "America/Denver"}, {"id": "6535797", "gmt": "3", "airport_id": "3023", "iata_code": "HOD", "city_iata_code": "HOD", "icao_code": "OYHD", "country_iso2": "YE", "geoname_id": "6300137", "latitude": "14.755638", "longitude": "42.970478", "airport_name": "Hodeidah Airport", "country_name": "Yemen", "phone_number": null, "timezone": "Asia/Aden"}, {"id": "6535799", "gmt": "3", "airport_id": "3025", "iata_code": "HOF", "city_iata_code": "HOF", "icao_code": "OEAH", "country_iso2": "SA", "geoname_id": "6300009", "latitude": "25.294783", "longitude": "49.48746", "airport_name": "Alahsa", "country_name": "Saudi Arabia", "phone_number": null, "timezone": "Asia/Riyadh"}, {"id": "6535800", "gmt": "-5", "airport_id": "3026", "iata_code": "HOG", "city_iata_code": "HOG", "icao_code": "MUHG", "country_iso2": "CU", "geoname_id": "6299925", "latitude": "20.785278", "longitude": "-76.315", "airport_name": "Frank Pais", "country_name": "Cuba", "phone_number": null, "timezone": "America/Havana"}]}