{"pagination": {"offset": 2200, "limit": 100, "count": 100, "total": 6685}, "data": [{"id": "6535801", "gmt": "1", "airport_id": "3027", "iata_code": "HOH", "city_iata_code": "HOH", "icao_code": "LOIH", "country_iso2": "AT", "geoname_id": "6299665", "latitude": "47.38333", "longitude": "9.7", "airport_name": "Hohenems-Dornbirn", "country_name": "Austria", "phone_number": null, "timezone": "Europe/Vienna"}, {"id": "6535802", "gmt": "-10", "airport_id": "3028", "iata_code": "HOI", "city_iata_code": "HOI", "icao_code": "NTTO", "country_iso2": "PF", "geoname_id": "6299967", "latitude": "-18.06248", "longitude": "-140.96529", "airport_name": "Hao Island", "country_name": "French Polynesia", "phone_number": null, "timezone": "Pacific/Tahiti"}, {"id": "6535803", "gmt": "9.30", "airport_id": "3029", "iata_code": "HOK", "city_iata_code": "HOK", "icao_code": "YHOO", "country_iso2": "AU", "geoname_id": "7731093", "latitude": "-18.335", "longitude": "130.6325", "airport_name": "Hooker Creek", "country_name": "Australia", "phone_number": null, "timezone": "Australia/Darwin"}, {"id": "6535805", "gmt": "-9", "airport_id": "3031", "iata_code": "HOM", "city_iata_code": "HOM", "icao_code": "PAHO", "country_iso2": "US", "geoname_id": "5864146", "latitude": "59.64324", "longitude": "-151.49316", "airport_name": "Homer", "country_name": "United States", "phone_number": null, "timezone": "America/Anchorage"}, {"id": "6535806", "gmt": "-6", "airport_id": "3032", "iata_code": "HON", "city_iata_code": "HON", "icao_code": "KHON", "country_iso2": "US", "geoname_id": "5228679", "latitude": "44.38361", "longitude": "-98.22639", "airport_name": "Howes", "country_name": "United States", "phone_number": null, "timezone": "America/Chicago"}, {"id": "6535808", "gmt": "-6", "airport_id": "3034", "iata_code": "HOP", "city_iata_code": "HOP", "icao_code": "KHOP", "country_iso2": "US", "geoname_id": "6301608", "latitude": "36.86667", "longitude": "-87.48333", "airport_name": "Campbell AAF", "country_name": "United States", "phone_number": null, "timezone": "America/Chicago"}, {"id": "6535809", "gmt": "1", "airport_id": "3035", "iata_code": "HOQ", "city_iata_code": "HOQ", "icao_code": "EDQM", "country_iso2": "DE", "geoname_id": "6296525", "latitude": "50.289165", "longitude": "11.862222", "airport_name": "Hof", "country_name": "Germany", "phone_number": null, "timezone": "Europe/Berlin"}, {"id": "6535810", "gmt": "-1", "airport_id": "3036", "iata_code": "HOR", "city_iata_code": "HOR", "icao_code": "LPHR", "country_iso2": "PT", "geoname_id": "6299682", "latitude": "38.52", "longitude": "-28.717222", "airport_name": "Horta", "country_name": "Portugal", "phone_number": null, "timezone": "Atlantic/Azores"}, {"id": "6535812", "gmt": "-6", "airport_id": "3038", "iata_code": "HOT", "city_iata_code": "HOT", "icao_code": "KHOT", "country_iso2": "US", "geoname_id": "4121282", "latitude": "34.47889", "longitude": "-93.09611", "airport_name": "Memorial Field", "country_name": "United States", "phone_number": null, "timezone": "America/Chicago"}, {"id": "6535813", "gmt": "-6", "airport_id": "3039", "iata_code": "HOU", "city_iata_code": "HOU", "icao_code": "KHOU", "country_iso2": "US", "geoname_id": "4741989", "latitude": "29.654512", "longitude": "-95.277016", "airport_name": "William P Hobby", "country_name": "United States", "phone_number": "281-233-3000", "timezone": "America/Chicago"}, {"id": "6535814", "gmt": "1", "airport_id": "3040", "iata_code": "HOV", "city_iata_code": "HOV", "icao_code": "ENOV", "country_iso2": "NO", "geoname_id": "6296760", "latitude": "62.179787", "longitude": "6.078802", "airport_name": "Hovden", "country_name": "Norway", "phone_number": null, "timezone": "Europe/Oslo"}, {"id": "6535818", "gmt": "13", "airport_id": "3044", "iata_code": "HPA", "city_iata_code": "HPA", "icao_code": "NFTL", "country_iso2": "TO", "geoname_id": null, "latitude": "-19.778538", "longitude": "-174.34088", "airport_name": "Salote Pilolevu", "country_name": null, "phone_number": null, "timezone": "Pacific/Tongatapu"}, {"id": "6535819", "gmt": "-9", "airport_id": "3045", "iata_code": "HPB", "city_iata_code": "HPB", "icao_code": "PAHP", "country_iso2": "US", "geoname_id": "5864198", "latitude": "61.525078", "longitude": "-166.14586", "airport_name": "Hooper Bay", "country_name": "United States", "phone_number": null, "timezone": "America/Nome"}, {"id": "6535821", "gmt": "7", "airport_id": "3047", "iata_code": "HPH", "city_iata_code": "HPH", "icao_code": "VVCI", "country_iso2": "VN", "geoname_id": "7730223", "latitude": "20.823315", "longitude": "106.727325", "airport_name": "Catbi", "country_name": null, "phone_number": null, "timezone": "Asia/Ho_Chi_Minh"}, {"id": "6535822", "gmt": "-5", "airport_id": "3048", "iata_code": "HPN", "city_iata_code": "HPN", "icao_code": "KHPN", "country_iso2": "US", "geoname_id": "5144051", "latitude": "41.068672", "longitude": "-73.70389", "airport_name": "Westchester County Apt", "country_name": "United States", "phone_number": null, "timezone": "America/New_York"}, {"id": "6535825", "gmt": "-6", "airport_id": "3051", "iata_code": "HPY", "city_iata_code": "HPY", "icao_code": "KHPY", "country_iso2": "US", "geoname_id": "4672732", "latitude": "29.733334", "longitude": "-94.96667", "airport_name": "Baytown Airport", "country_name": "United States", "phone_number": null, "timezone": "America/Chicago"}, {"id": "6535828", "gmt": "8", "airport_id": "3054", "iata_code": "HRB", "city_iata_code": "HRB", "icao_code": "ZYHB", "country_iso2": "CN", "geoname_id": "6301399", "latitude": "45.620853", "longitude": "126.23644", "airport_name": "Harbin", "country_name": "China", "phone_number": null, "timezone": "Asia/Shanghai"}, {"id": "6535830", "gmt": "2", "airport_id": "3056", "iata_code": "HRE", "city_iata_code": "HRE", "icao_code": "FVHA", "country_iso2": "ZW", "geoname_id": "1106437", "latitude": "-17.91863", "longitude": "31.099249", "airport_name": "Harare", "country_name": "Zimbabwe", "phone_number": null, "timezone": "Africa/Harare"}, {"id": "6535831", "gmt": "2", "airport_id": "3057", "iata_code": "HRG", "city_iata_code": "HRG", "icao_code": "HEGN", "country_iso2": "EG", "geoname_id": "6297294", "latitude": "27.189156", "longitude": "33.8055", "airport_name": "Hurghada", "country_name": "Egypt", "phone_number": "(65) 446 772", "timezone": "Africa/Cairo"}, {"id": "6535834", "gmt": "2", "airport_id": "3060", "iata_code": "HRK", "city_iata_code": "HRK", "icao_code": "UKHH", "country_iso2": "UA", "geoname_id": "6300958", "latitude": "49.92078", "longitude": "36.281185", "airport_name": "Kharkov", "country_name": "Ukraine", "phone_number": null, "timezone": "Europe/Kiev"}, {"id": "6535835", "gmt": "-6", "airport_id": "3061", "iata_code": "HRL", "city_iata_code": "HRL", "icao_code": "KHRL", "country_iso2": "US", "geoname_id": "4722841", "latitude": "26.223482", "longitude": "-97.662254", "airport_name": "Valley International", "country_name": "United States", "phone_number": null, "timezone": "America/Chicago"}, {"id": "6535836", "gmt": "1", "airport_id": "3062", "iata_code": "HRM", "city_iata_code": "HRM", "icao_code": "DAFH", "country_iso2": "DZ", "geoname_id": "6296375", "latitude": "33.166668", "longitude": "3.2", "airport_name": "Tilrempt", "country_name": null, "phone_number": null, "timezone": "Africa/Algiers"}, {"id": "6535838", "gmt": "-6", "airport_id": "3064", "iata_code": "HRO", "city_iata_code": "HRO", "icao_code": "KHRO", "country_iso2": "US", "geoname_id": "4113956", "latitude": "36.261665", "longitude": "-93.155556", "airport_name": "Boone County", "country_name": "United States", "phone_number": null, "timezone": "America/Chicago"}, {"id": "6535841", "gmt": null, "airport_id": "3067", "iata_code": "HRT", "city_iata_code": "HRT", "icao_code": "KHRT", "country_iso2": "GB", "geoname_id": "6296673", "latitude": "54", "longitude": "-1.55", "airport_name": "Linton-On-Ouse", "country_name": "United Kingdom", "phone_number": null, "timezone": "Europe/London"}, {"id": "6535846", "gmt": "9", "airport_id": "3072", "iata_code": "HSG", "city_iata_code": "HSG", "icao_code": "RJFS", "country_iso2": "JP", "geoname_id": "6300353", "latitude": "33.153828", "longitude": "130.30278", "airport_name": "Saga", "country_name": "Japan", "phone_number": null, "timezone": "Asia/Tokyo"}, {"id": "6535847", "gmt": "-8", "airport_id": "3073", "iata_code": "HSH", "city_iata_code": "LAS", "icao_code": "KHND", "country_iso2": "US", "geoname_id": "5506989", "latitude": "35.968334", "longitude": "-115.11916", "airport_name": "Henderson Executive", "country_name": "United States", "phone_number": null, "timezone": "America/Los_Angeles"}, {"id": "6535848", "gmt": "-6", "airport_id": "3074", "iata_code": "HSI", "city_iata_code": "HSI", "icao_code": "KHSI", "country_iso2": "US", "geoname_id": "5069812", "latitude": "40.605556", "longitude": "-98.42694", "airport_name": "Hastings", "country_name": "United States", "phone_number": null, "timezone": "America/Chicago"}, {"id": "6535849", "gmt": "1", "airport_id": "3075", "iata_code": "HSK", "city_iata_code": "HSK", "icao_code": "LEHC", "country_iso2": "ES", "geoname_id": "7116799", "latitude": "42.08093", "longitude": "-0.323469", "airport_name": "Huesca-Pirineos", "country_name": "Spain", "phone_number": null, "timezone": "Europe/Madrid"}, {"id": "6535850", "gmt": "-9", "airport_id": "3076", "iata_code": "HSL", "city_iata_code": "HSL", "icao_code": "PAHS", "country_iso2": "US", "geoname_id": "5864433", "latitude": "65.7025", "longitude": "-156.375", "airport_name": "Huslia", "country_name": "United States", "phone_number": null, "timezone": "America/Anchorage"}, {"id": "6535851", "gmt": "10", "airport_id": "3077", "iata_code": "HSM", "city_iata_code": "HSM", "icao_code": "YHSM", "country_iso2": "AU", "geoname_id": "7668724", "latitude": "-36.666668", "longitude": "142.16667", "airport_name": "Horsham", "country_name": "Australia", "phone_number": null, "timezone": "Australia/Melbourne"}, {"id": "6535852", "gmt": "8", "airport_id": "3078", "iata_code": "HSN", "city_iata_code": "HSN", "icao_code": "ZSZS", "country_iso2": "CN", "geoname_id": "7731095", "latitude": "29.935259", "longitude": "122.35691", "airport_name": "Zhoushan", "country_name": "China", "phone_number": null, "timezone": "Asia/Shanghai"}, {"id": "6535854", "gmt": "5.30", "airport_id": "3080", "iata_code": "HSS", "city_iata_code": "HSS", "icao_code": "VIHR", "country_iso2": "IN", "geoname_id": "6301098", "latitude": "29.166668", "longitude": "75.8", "airport_name": "Hissar", "country_name": "India", "phone_number": null, "timezone": "Asia/Kolkata"}, {"id": "6535856", "gmt": "-6", "airport_id": "3082", "iata_code": "HSV", "city_iata_code": "HSV", "icao_code": "KHSV", "country_iso2": "US", "geoname_id": "4068590", "latitude": "34.64857", "longitude": "-86.77484", "airport_name": "Huntsville International - Carl T. Jones Field", "country_name": "United States", "phone_number": "256-772-9395", "timezone": "America/Chicago"}, {"id": "6535858", "gmt": "9", "airport_id": "3084", "iata_code": "HTA", "city_iata_code": "HTA", "icao_code": "UIAA", "country_iso2": "RU", "geoname_id": "6300943", "latitude": "52.033333", "longitude": "113.3", "airport_name": "Chita", "country_name": "Russia", "phone_number": null, "timezone": "Asia/Yakutsk"}, {"id": "6535860", "gmt": "7", "airport_id": "3086", "iata_code": "HTG", "city_iata_code": "HTG", "icao_code": "UOHH", "country_iso2": "RU", "geoname_id": "7730190", "latitude": "71.96667", "longitude": "102.5", "airport_name": "Hatanga", "country_name": "Russia", "phone_number": null, "timezone": "Asia/Krasnoyarsk"}, {"id": "6535861", "gmt": "-8", "airport_id": "3087", "iata_code": "HTH", "city_iata_code": "HTH", "icao_code": "KHTH", "country_iso2": "US", "geoname_id": "5505324", "latitude": "38.533333", "longitude": "-118.63333", "airport_name": "Hawthorne", "country_name": "United States", "phone_number": null, "timezone": "America/Los_Angeles"}, {"id": "6535862", "gmt": "10", "airport_id": "3088", "iata_code": "HTI", "city_iata_code": "HTI", "icao_code": "YBHM", "country_iso2": "AU", "geoname_id": "7730241", "latitude": "-20.35175", "longitude": "148.94847", "airport_name": "Hamilton Island", "country_name": "Australia", "phone_number": null, "timezone": "Australia/Lindeman"}, {"id": "6535863", "gmt": "-5", "airport_id": "3089", "iata_code": "HTL", "city_iata_code": "HTL", "icao_code": "KHTL", "country_iso2": "US", "geoname_id": "5007588", "latitude": "44.448055", "longitude": "-84.71111", "airport_name": "Roscommon County", "country_name": "United States", "phone_number": null, "timezone": "America/Detroit"}, {"id": "6535865", "gmt": "8", "airport_id": "3091", "iata_code": "HTN", "city_iata_code": "HTN", "icao_code": "ZWTN", "country_iso2": "CN", "geoname_id": "6301395", "latitude": "37.040436", "longitude": "79.87245", "airport_name": "Hotan", "country_name": "China", "phone_number": null, "timezone": "Asia/Shanghai"}, {"id": "6535866", "gmt": "-5", "airport_id": "3092", "iata_code": "HTO", "city_iata_code": "HTO", "icao_code": "KHTO", "country_iso2": "US", "geoname_id": "5115872", "latitude": "40.959442", "longitude": "-72.25166", "airport_name": "East Hampton", "country_name": "United States", "phone_number": null, "timezone": "America/New_York"}, {"id": "6535867", "gmt": "9", "airport_id": "3093", "iata_code": "HTR", "city_iata_code": "HTR", "icao_code": "RORH", "country_iso2": "JP", "geoname_id": "6300466", "latitude": "24.05", "longitude": "123.8", "airport_name": "Hateruma", "country_name": "Japan", "phone_number": null, "timezone": "Asia/Tokyo"}, {"id": "6535868", "gmt": "-5", "airport_id": "3094", "iata_code": "HTS", "city_iata_code": "HTS", "icao_code": "KHTS", "country_iso2": "US", "geoname_id": "4825023", "latitude": "38.366943", "longitude": "-82.556114", "airport_name": "Tri-state/Milton", "country_name": "United States", "phone_number": null, "timezone": "America/New_York"}, {"id": "6535869", "gmt": "10", "airport_id": "3095", "iata_code": "HTU", "city_iata_code": "HTU", "icao_code": "YHPN", "country_iso2": "AU", "geoname_id": "7668723", "latitude": "-35.7", "longitude": "142.36667", "airport_name": "Hopetoun", "country_name": "Australia", "phone_number": null, "timezone": "Australia/Melbourne"}, {"id": "6535871", "gmt": "-5", "airport_id": "3097", "iata_code": "HTW", "city_iata_code": "HTW", "icao_code": "KHTW", "country_iso2": "US", "geoname_id": "4516352", "latitude": "36.833332", "longitude": "-76.28333", "airport_name": "Lawrence County Airpark", "country_name": "United States", "phone_number": null, "timezone": "America/New_York"}, {"id": "6535872", "gmt": "3", "airport_id": "3098", "iata_code": "HTY", "city_iata_code": "HTY", "icao_code": "LTDA", "country_iso2": "TR", "geoname_id": "7625766", "latitude": "36.364544", "longitude": "36.28057", "airport_name": "Hatay", "country_name": "Turkey", "phone_number": null, "timezone": "Europe/Istanbul"}, {"id": "6535875", "gmt": "9.30", "airport_id": "3101", "iata_code": "HUB", "city_iata_code": "HUB", "icao_code": "YHBR", "country_iso2": "AU", "geoname_id": "7731096", "latitude": "-16.5", "longitude": "130.75", "airport_name": "Humbert River", "country_name": "Australia", "phone_number": null, "timezone": "Australia/Darwin"}, {"id": "6535878", "gmt": "3", "airport_id": "3104", "iata_code": "HUE", "city_iata_code": "HUE", "icao_code": "HAHU", "country_iso2": "ET", "geoname_id": "7730588", "latitude": "14.25", "longitude": "36.583332", "airport_name": "Humera", "country_name": "Ethiopia", "phone_number": null, "timezone": "Africa/Addis_Ababa"}, {"id": "6535879", "gmt": "-5", "airport_id": "3105", "iata_code": "HUF", "city_iata_code": "HUF", "icao_code": "KHUF", "country_iso2": "US", "geoname_id": "6298406", "latitude": "39.454445", "longitude": "-87.3075", "airport_name": "Hulman Field", "country_name": "United States", "phone_number": null, "timezone": "America/Indiana/Indianapolis"}, {"id": "6535880", "gmt": "-6", "airport_id": "3106", "iata_code": "HUG", "city_iata_code": "HUG", "icao_code": "MGHT", "country_iso2": "GT", "geoname_id": "6299802", "latitude": "15.333333", "longitude": "-91.46667", "airport_name": "Huehuetenango", "country_name": "Guatemala", "phone_number": null, "timezone": "America/Guatemala"}, {"id": "6535881", "gmt": "-10", "airport_id": "3107", "iata_code": "HUH", "city_iata_code": "HUH", "icao_code": "NTTH", "country_iso2": "PF", "geoname_id": "7730131", "latitude": "-16.689682", "longitude": "-151.02826", "airport_name": "Huahine", "country_name": "French Polynesia", "phone_number": null, "timezone": "Pacific/Tahiti"}, {"id": "6535882", "gmt": "7", "airport_id": "3108", "iata_code": "HUI", "city_iata_code": "HUI", "icao_code": "VVPB", "country_iso2": "VN", "geoname_id": "6301172", "latitude": "16.398224", "longitude": "107.700874", "airport_name": "Phu Bai", "country_name": null, "phone_number": null, "timezone": "Asia/Ho_Chi_Minh"}, {"id": "6535883", "gmt": "-6", "airport_id": "3109", "iata_code": "HUJ", "city_iata_code": "HUJ", "icao_code": "KHHW", "country_iso2": "US", "geoname_id": "4552114", "latitude": "34.016666", "longitude": "-95.51667", "airport_name": "Hugo", "country_name": "United States", "phone_number": null, "timezone": "America/Chicago"}, {"id": "6535885", "gmt": "-5", "airport_id": "3111", "iata_code": "HUL", "city_iata_code": "HUL", "icao_code": "KHUL", "country_iso2": "US", "geoname_id": "4967575", "latitude": "46.13333", "longitude": "-67.8", "airport_name": "Houlton International Airport", "country_name": "United States", "phone_number": null, "timezone": "America/New_York"}, {"id": "6535886", "gmt": "-6", "airport_id": "3112", "iata_code": "HUM", "city_iata_code": "HUM", "icao_code": "KHUM", "country_iso2": "US", "geoname_id": "4328010", "latitude": "29.566944", "longitude": "-90.660835", "airport_name": "Terrebonne", "country_name": "United States", "phone_number": null, "timezone": "America/Chicago"}, {"id": "6535887", "gmt": "8", "airport_id": "3113", "iata_code": "HUN", "city_iata_code": "HUN", "icao_code": "RCYU", "country_iso2": "TW", "geoname_id": "6300306", "latitude": "24.025764", "longitude": "121.613434", "airport_name": "Hualien", "country_name": "Taiwan", "phone_number": null, "timezone": "Asia/Taipei"}, {"id": "6535888", "gmt": "2", "airport_id": "3114", "iata_code": "HUQ", "city_iata_code": "HUQ", "icao_code": "HLON", "country_iso2": "LY", "geoname_id": "7730619", "latitude": "29.5", "longitude": "15.5", "airport_name": "Houn", "country_name": "Libya", "phone_number": null, "timezone": "Africa/Tripoli"}, {"id": "6535889", "gmt": "-9", "airport_id": "3115", "iata_code": "HUS", "city_iata_code": "HUS", "icao_code": "PAHU", "country_iso2": "US", "geoname_id": "5864351", "latitude": "66.04056", "longitude": "-154.26334", "airport_name": "Municipal", "country_name": "United States", "phone_number": null, "timezone": "America/Anchorage"}, {"id": "6535890", "gmt": "-6", "airport_id": "3116", "iata_code": "HUT", "city_iata_code": "HUT", "icao_code": "KHUT", "country_iso2": "US", "geoname_id": "4273304", "latitude": "38.068054", "longitude": "-97.861115", "airport_name": "Hutchinson", "country_name": "United States", "phone_number": null, "timezone": "America/Chicago"}, {"id": "6535891", "gmt": "-5", "airport_id": "3117", "iata_code": "HUU", "city_iata_code": "HUU", "icao_code": "SPNC", "country_iso2": "PE", "geoname_id": "6300814", "latitude": "-9.866667", "longitude": "-76.21667", "airport_name": "Huanuco", "country_name": "Peru", "phone_number": null, "timezone": "America/Lima"}, {"id": "6535893", "gmt": "-4", "airport_id": "3119", "iata_code": "HUW", "city_iata_code": "HUW", "icao_code": "SWHT", "country_iso2": "BR", "geoname_id": "8260830", "latitude": "53.583447", "longitude": "-0.348669", "airport_name": "Humaita", "country_name": "Brazil", "phone_number": null, "timezone": "America/Manaus"}, {"id": "6535894", "gmt": "-6", "airport_id": "3120", "iata_code": "HUX", "city_iata_code": "HUX", "icao_code": "MMBT", "country_iso2": "MX", "geoname_id": "6299829", "latitude": "15.768333", "longitude": "-96.23556", "airport_name": "Huatulco", "country_name": "Mexico", "phone_number": null, "timezone": "America/Mexico_City"}, {"id": "6535895", "gmt": null, "airport_id": "3121", "iata_code": "HUY", "city_iata_code": "HUY", "icao_code": "EGNJ", "country_iso2": "GB", "geoname_id": "6296606", "latitude": "53.583378", "longitude": "-0.34851", "airport_name": "Humberside International", "country_name": "United Kingdom", "phone_number": null, "timezone": "Europe/London"}, {"id": "6535897", "gmt": "3", "airport_id": "3123", "iata_code": "HVA", "city_iata_code": "HVA", "icao_code": "FMNL", "country_iso2": "MG", "geoname_id": "6297046", "latitude": "-14.633333", "longitude": "47.766666", "airport_name": "Analalava", "country_name": "Madagascar", "phone_number": null, "timezone": "Indian/Antananarivo"}, {"id": "6535898", "gmt": "10", "airport_id": "3124", "iata_code": "HVB", "city_iata_code": "HVB", "icao_code": "YHBA", "country_iso2": "AU", "geoname_id": "6354957", "latitude": "-25.319868", "longitude": "152.88521", "airport_name": "Hervey Bay", "country_name": "Australia", "phone_number": null, "timezone": "Australia/Brisbane"}, {"id": "6535899", "gmt": "7", "airport_id": "3125", "iata_code": "HVD", "city_iata_code": "HVD", "icao_code": "ZMKD", "country_iso2": "MN", "geoname_id": "7668798", "latitude": "48.016666", "longitude": "91.65", "airport_name": "Khovd", "country_name": "Mongolia", "phone_number": null, "timezone": "Asia/Hovd"}, {"id": "6535900", "gmt": "-7", "airport_id": "3126", "iata_code": "HVE", "city_iata_code": "HVE", "icao_code": "KHVE", "country_iso2": "US", "geoname_id": "5540149", "latitude": "38.36667", "longitude": "-110.71667", "airport_name": "Intermediate", "country_name": "United States", "phone_number": null, "timezone": "America/Denver"}, {"id": "6535901", "gmt": "1", "airport_id": "3127", "iata_code": "HVG", "city_iata_code": "HVG", "icao_code": "ENHV", "country_iso2": "NO", "geoname_id": "6296745", "latitude": "70.98333", "longitude": "25.833332", "airport_name": "Valan", "country_name": "Norway", "phone_number": null, "timezone": "Europe/Oslo"}, {"id": "6535902", "gmt": null, "airport_id": "3128", "iata_code": "HVK", "city_iata_code": "HVK", "icao_code": "BIHK", "country_iso2": "IS", "geoname_id": "7730430", "latitude": "65.7", "longitude": "-22.466667", "airport_name": "Holmavik", "country_name": "Iceland", "phone_number": null, "timezone": "Atlantic/Reykjavik"}, {"id": "6535903", "gmt": "-5", "airport_id": "3129", "iata_code": "HVN", "city_iata_code": "HVN", "icao_code": "KHVN", "country_iso2": "US", "geoname_id": "4844546", "latitude": "41.265278", "longitude": "-72.888336", "airport_name": "New Haven", "country_name": "United States", "phone_number": null, "timezone": "America/New_York"}, {"id": "6535904", "gmt": "-7", "airport_id": "3130", "iata_code": "HVR", "city_iata_code": "HVR", "icao_code": "KHVR", "country_iso2": "US", "geoname_id": "5656501", "latitude": "48.544445", "longitude": "-109.76111", "airport_name": "City County", "country_name": "United States", "phone_number": null, "timezone": "America/Denver"}, {"id": "6535905", "gmt": "-5", "airport_id": "3131", "iata_code": "HVS", "city_iata_code": "HVS", "icao_code": "KHVS", "country_iso2": "US", "geoname_id": "4581253", "latitude": "34.38333", "longitude": "-80.066666", "airport_name": "Municipal", "country_name": "United States", "phone_number": null, "timezone": "America/New_York"}, {"id": "6535908", "gmt": "-8", "airport_id": "3134", "iata_code": "HWD", "city_iata_code": "HWD", "icao_code": "KHWD", "country_iso2": "US", "geoname_id": "5355936", "latitude": "37.666668", "longitude": "-122.083336", "airport_name": "Air Terminal", "country_name": "United States", "phone_number": null, "timezone": "America/Los_Angeles"}, {"id": "6535910", "gmt": "9.30", "airport_id": "3136", "iata_code": "HWK", "city_iata_code": "HWK", "icao_code": "YHAW", "country_iso2": "AU", "geoname_id": "7731098", "latitude": "-31.716667", "longitude": "138.41667", "airport_name": "Wilpena Pound", "country_name": "Australia", "phone_number": null, "timezone": "Australia/Adelaide"}, {"id": "6535911", "gmt": "2", "airport_id": "3137", "iata_code": "HWN", "city_iata_code": "HWN", "icao_code": "FVWN", "country_iso2": "ZW", "geoname_id": "6297116", "latitude": "-19.3625", "longitude": "26.518333", "airport_name": "Hwange Nat Park", "country_name": "Zimbabwe", "phone_number": null, "timezone": "Africa/Harare"}, {"id": "6535912", "gmt": "-5", "airport_id": "3138", "iata_code": "HWO", "city_iata_code": "HWO", "icao_code": "KHWO", "country_iso2": "US", "geoname_id": "4166262", "latitude": "26", "longitude": "-80.15", "airport_name": "North Perry", "country_name": "United States", "phone_number": null, "timezone": "America/New_York"}, {"id": "6535913", "gmt": "10", "airport_id": "3139", "iata_code": "HXX", "city_iata_code": "HXX", "icao_code": "YHAY", "country_iso2": "AU", "geoname_id": "7668719", "latitude": "-34.516666", "longitude": "144.83333", "airport_name": "Hay", "country_name": "Australia", "phone_number": null, "timezone": "Australia/Sydney"}, {"id": "6535914", "gmt": "-5", "airport_id": "3140", "iata_code": "HYA", "city_iata_code": "HYA", "icao_code": "KHYA", "country_iso2": "US", "geoname_id": "4940190", "latitude": "41.665833", "longitude": "-70.280556", "airport_name": "Barnstable", "country_name": "United States", "phone_number": null, "timezone": "America/New_York"}, {"id": "6535916", "gmt": "5.30", "airport_id": "3142", "iata_code": "HYD", "city_iata_code": "HYD", "icao_code": "VOHS", "country_iso2": "IN", "geoname_id": "7729997", "latitude": "17.24", "longitude": "78.428055", "airport_name": "Hyderabad Airport", "country_name": "India", "phone_number": null, "timezone": "Asia/Kolkata"}, {"id": "6535918", "gmt": "-9", "airport_id": "3144", "iata_code": "HYG", "city_iata_code": "HYG", "icao_code": "PAHY", "country_iso2": "US", "geoname_id": "5553662", "latitude": "55.20667", "longitude": "-132.82666", "airport_name": "SPB", "country_name": "United States", "phone_number": null, "timezone": "America/Sitka"}, {"id": "6535920", "gmt": "8", "airport_id": "3146", "iata_code": "HYN", "city_iata_code": "HYN", "icao_code": "ZSLQ", "country_iso2": "CN", "geoname_id": "6686900", "latitude": "28.558096", "longitude": "121.41675", "airport_name": "Huangyan", "country_name": "China", "phone_number": null, "timezone": "Asia/Shanghai"}, {"id": "6535922", "gmt": "-6", "airport_id": "3148", "iata_code": "HYS", "city_iata_code": "HYS", "icao_code": "KHYS", "country_iso2": "US", "geoname_id": "4272786", "latitude": "38.84611", "longitude": "-99.27417", "airport_name": "Municipal", "country_name": "United States", "phone_number": null, "timezone": "America/Chicago"}, {"id": "6535923", "gmt": "2", "airport_id": "3149", "iata_code": "HYV", "city_iata_code": "HYV", "icao_code": "EFHV", "country_iso2": "FI", "geoname_id": "7730067", "latitude": "60.654167", "longitude": "24.884443", "airport_name": "Hyvinkaa", "country_name": "Finland", "phone_number": null, "timezone": "Europe/Helsinki"}, {"id": "6535924", "gmt": "1", "airport_id": "3150", "iata_code": "HZB", "city_iata_code": "HZB", "icao_code": "LFQT", "country_iso2": "FR", "geoname_id": "6694655", "latitude": "50.61667", "longitude": "2.65", "airport_name": "Merville/Calonne", "country_name": "France", "phone_number": null, "timezone": "Europe/Paris"}, {"id": "6535925", "gmt": "8", "airport_id": "3151", "iata_code": "HZG", "city_iata_code": "HZG", "icao_code": "ZLHZ", "country_iso2": "CN", "geoname_id": "7731100", "latitude": "32.983334", "longitude": "107.183334", "airport_name": "Hanzhong", "country_name": "China", "phone_number": null, "timezone": "Asia/Shanghai"}, {"id": "6535926", "gmt": "8", "airport_id": "3152", "iata_code": "HZH", "city_iata_code": "HZH", "icao_code": "ZUNP", "country_iso2": "CN", "geoname_id": "8260854", "latitude": "26.320213", "longitude": "109.15381", "airport_name": "Liping", "country_name": "China", "phone_number": null, "timezone": "Asia/Shanghai"}, {"id": "6535927", "gmt": null, "airport_id": "3153", "iata_code": "HZK", "city_iata_code": "HZK", "icao_code": "BIHU", "country_iso2": "IS", "geoname_id": "7668102", "latitude": "65.95528", "longitude": "-17.427778", "airport_name": "Husavik", "country_name": "Iceland", "phone_number": null, "timezone": "Atlantic/Reykjavik"}, {"id": "6535928", "gmt": "-5", "airport_id": "3154", "iata_code": "HZL", "city_iata_code": "HZL", "icao_code": "KHZL", "country_iso2": "US", "geoname_id": "5193016", "latitude": "40.98639", "longitude": "-75.99111", "airport_name": "Hazleton", "country_name": "United States", "phone_number": null, "timezone": "America/New_York"}, {"id": "6535929", "gmt": "-7", "airport_id": "3155", "iata_code": "HZP", "city_iata_code": "HZP", "icao_code": "CYNR", "country_iso2": "CA", "geoname_id": "8260954", "latitude": "57.381668", "longitude": "-111.70111", "airport_name": "Horizon", "country_name": "Canada", "phone_number": null, "timezone": "America/Edmonton"}, {"id": "6535931", "gmt": "7", "airport_id": "3157", "iata_code": "IAA", "city_iata_code": "IAA", "icao_code": "UOII", "country_iso2": "RU", "geoname_id": "7668528", "latitude": "67.433334", "longitude": "86.63333", "airport_name": "Igarka", "country_name": "Russia", "phone_number": null, "timezone": "Asia/Krasnoyarsk"}, {"id": "6535933", "gmt": "-5", "airport_id": "3159", "iata_code": "IAD", "city_iata_code": "WAS", "icao_code": "KIAD", "country_iso2": "US", "geoname_id": "4792325", "latitude": "38.95315", "longitude": "-77.44774", "airport_name": "Washington Dulles International", "country_name": "United States", "phone_number": "703-572-2700", "timezone": "America/New_York"}, {"id": "6535934", "gmt": "-5", "airport_id": "3160", "iata_code": "IAG", "city_iata_code": "IAG", "icao_code": "KIAG", "country_iso2": "US", "geoname_id": "5128725", "latitude": "43.1", "longitude": "-78.95", "airport_name": "Niagara Falls International Airport", "country_name": "United States", "phone_number": null, "timezone": "America/New_York"}, {"id": "6535935", "gmt": "-6", "airport_id": "3161", "iata_code": "IAH", "city_iata_code": "HOU", "icao_code": "KIAH", "country_iso2": "US", "geoname_id": "4693268", "latitude": "29.983334", "longitude": "-95.34", "airport_name": "George Bush Intercontinental", "country_name": "United States", "phone_number": "281-230-3100", "timezone": "America/Chicago"}, {"id": "6535936", "gmt": "1", "airport_id": "3162", "iata_code": "IAM", "city_iata_code": "IAM", "icao_code": "DAUZ", "country_iso2": "DZ", "geoname_id": "6296397", "latitude": "28.051111", "longitude": "9.638056", "airport_name": "In Amenas", "country_name": null, "phone_number": null, "timezone": "Africa/Algiers"}, {"id": "6535937", "gmt": "-9", "airport_id": "3163", "iata_code": "IAN", "city_iata_code": "IAN", "icao_code": "PAIK", "country_iso2": "US", "geoname_id": "5866155", "latitude": "66.975555", "longitude": "-160.43056", "airport_name": "Bob Barker Memorial", "country_name": "United States", "phone_number": null, "timezone": "America/Anchorage"}, {"id": "6535938", "gmt": "8", "airport_id": "3164", "iata_code": "IAO", "city_iata_code": "IAO", "icao_code": "RPNS", "country_iso2": "PH", "geoname_id": "8298656", "latitude": "9.858889", "longitude": "126.013885", "airport_name": "Sayak Airport", "country_name": "Philippines", "phone_number": null, "timezone": "Asia/Manila"}, {"id": "6535940", "gmt": "3", "airport_id": "3166", "iata_code": "IAR", "city_iata_code": "IAR", "icao_code": "UUDL", "country_iso2": "RU", "geoname_id": "7731101", "latitude": "57.61667", "longitude": "39.88333", "airport_name": "Yaroslavl", "country_name": "Russia", "phone_number": null, "timezone": "Europe/Moscow"}, {"id": "6535941", "gmt": "2", "airport_id": "3167", "iata_code": "IAS", "city_iata_code": "IAS", "icao_code": "LRIA", "country_iso2": "RO", "geoname_id": "6299706", "latitude": "47.176987", "longitude": "27.616993", "airport_name": "Iasi", "country_name": "Romania", "phone_number": null, "timezone": "Europe/Bucharest"}, {"id": "6535943", "gmt": "1", "airport_id": "3169", "iata_code": "IBA", "city_iata_code": "IBA", "icao_code": "DNIB", "country_iso2": "NG", "geoname_id": "2339354", "latitude": "7.431944", "longitude": "3.911111", "airport_name": "Ibadan", "country_name": "Nigeria", "phone_number": null, "timezone": "Africa/Lagos"}, {"id": "6535945", "gmt": "-5", "airport_id": "3171", "iata_code": "IBE", "city_iata_code": "IBE", "icao_code": "SKIB", "country_iso2": "CO", "geoname_id": "6300743", "latitude": "4.423948", "longitude": "-75.13858", "airport_name": "Ibague", "country_name": "Colombia", "phone_number": null, "timezone": "America/Bogota"}, {"id": "6535949", "gmt": "-5", "airport_id": "3175", "iata_code": "IBP", "city_iata_code": "IBP", "icao_code": "SPBR", "country_iso2": "PE", "geoname_id": "7730175", "latitude": "-11.366667", "longitude": "-69.583336", "airport_name": "Iberia", "country_name": "Peru", "phone_number": null, "timezone": "America/Lima"}]}