{"pagination": {"offset": 2900, "limit": 100, "count": 100, "total": 6685}, "data": [{"id": "6536872", "gmt": "9", "airport_id": "4098", "iata_code": "KUV", "city_iata_code": "KUV", "icao_code": "RKJK", "country_iso2": "KR", "geoname_id": "6300416", "latitude": "35.983334", "longitude": "126.75", "airport_name": "Gunsan", "country_name": "South Korea", "phone_number": null, "timezone": "Asia/Seoul"}, {"id": "6536877", "gmt": "2", "airport_id": "4103", "iata_code": "KVA", "city_iata_code": "KVA", "icao_code": "LGKV", "country_iso2": "GR", "geoname_id": "6299496", "latitude": "40.912994", "longitude": "24.619675", "airport_name": "Megas Alexandros International", "country_name": "Greece", "phone_number": null, "timezone": "Europe/Athens"}, {"id": "6536878", "gmt": "1", "airport_id": "4104", "iata_code": "KVB", "city_iata_code": "KVB", "icao_code": "ESGR", "country_iso2": "SE", "geoname_id": "6296792", "latitude": "58.45", "longitude": "13.966667", "airport_name": "Skovde", "country_name": "Sweden", "phone_number": null, "timezone": "Europe/Stockholm"}, {"id": "6536879", "gmt": "-9", "airport_id": "4105", "iata_code": "KVC", "city_iata_code": "KVC", "icao_code": "PAVC", "country_iso2": "US", "geoname_id": "5866310", "latitude": "55.055", "longitude": "-162.31334", "airport_name": "King Cove", "country_name": "United States", "phone_number": null, "timezone": "America/Nome"}, {"id": "6536880", "gmt": "4", "airport_id": "4106", "iata_code": "KVD", "city_iata_code": "KVD", "icao_code": "UBBG", "country_iso2": "AZ", "geoname_id": "6300925", "latitude": "40.733334", "longitude": "46.316666", "airport_name": "Gyandzha", "country_name": "Azerbaijan", "phone_number": null, "timezone": "Asia/Baku"}, {"id": "6536882", "gmt": "10", "airport_id": "4108", "iata_code": "KVG", "city_iata_code": "KVG", "icao_code": "AYKV", "country_iso2": "PG", "geoname_id": "7668083", "latitude": "-2.58075", "longitude": "150.80653", "airport_name": "Kavieng", "country_name": "Papua New Guinea", "phone_number": null, "timezone": "Pacific/Port_Moresby"}, {"id": "6536883", "gmt": "3", "airport_id": "4109", "iata_code": "KVK", "city_iata_code": "KVK", "icao_code": "ULMK", "country_iso2": "RU", "geoname_id": "7668517", "latitude": "67.583336", "longitude": "33.583332", "airport_name": "Kirovsk", "country_name": "Russia", "phone_number": null, "timezone": "Europe/Volgograd"}, {"id": "6536884", "gmt": "-9", "airport_id": "4110", "iata_code": "KVL", "city_iata_code": "KVL", "icao_code": "PAVL", "country_iso2": "US", "geoname_id": "5866442", "latitude": "67.73167", "longitude": "-164.54723", "airport_name": "Kivalina", "country_name": "United States", "phone_number": null, "timezone": "America/Nome"}, {"id": "6536887", "gmt": "3", "airport_id": "4113", "iata_code": "KVX", "city_iata_code": "KVX", "icao_code": "USKK", "country_iso2": "RU", "geoname_id": "7668533", "latitude": "58.5", "longitude": "49.35", "airport_name": "Kirov", "country_name": "Russia", "phone_number": null, "timezone": "Europe/Volgograd"}, {"id": "6536888", "gmt": "12", "airport_id": "4114", "iata_code": "KWA", "city_iata_code": "KWA", "icao_code": "PKWA", "country_iso2": "MH", "geoname_id": "7303962", "latitude": "8.720843", "longitude": "167.72195", "airport_name": "Kwajalein", "country_name": "Marshall Islands", "phone_number": null, "timezone": "Pacific/Kwajalein"}, {"id": "6536889", "gmt": "7", "airport_id": "4115", "iata_code": "KWB", "city_iata_code": "KWB", "icao_code": "WICM", "country_iso2": "ID", "geoname_id": "7731199", "latitude": "-5.833333", "longitude": "110.5", "airport_name": "Karimunjawa", "country_name": "Indonesia", "phone_number": null, "timezone": "Asia/Jakarta"}, {"id": "6536891", "gmt": "8", "airport_id": "4117", "iata_code": "KWE", "city_iata_code": "KWE", "icao_code": "ZUGY", "country_iso2": "CN", "geoname_id": "6301391", "latitude": "26.544216", "longitude": "106.79598", "airport_name": "Guiyang", "country_name": "China", "phone_number": null, "timezone": "Asia/Shanghai"}, {"id": "6536893", "gmt": "2", "airport_id": "4119", "iata_code": "KWG", "city_iata_code": "KWG", "icao_code": "UKDR", "country_iso2": "UA", "geoname_id": "6300956", "latitude": "48.05", "longitude": "33.216667", "airport_name": "Krivoy Rog", "country_name": "Ukraine", "phone_number": null, "timezone": "Europe/Kiev"}, {"id": "6536894", "gmt": "4.30", "airport_id": "4120", "iata_code": "KWH", "city_iata_code": "KWH", "icao_code": "OAHN", "country_iso2": "AF", "geoname_id": "7730738", "latitude": "33.916668", "longitude": "66.333336", "airport_name": "Khwahan", "country_name": "Afghanistan", "phone_number": null, "timezone": "Asia/Kabul"}, {"id": "6536895", "gmt": "3", "airport_id": "4121", "iata_code": "KWI", "city_iata_code": "KWI", "icao_code": "OKBK", "country_iso2": "KW", "geoname_id": "6300091", "latitude": "29.240116", "longitude": "47.971252", "airport_name": "Kuwait International", "country_name": "Kuwait", "phone_number": null, "timezone": "Asia/Kuwait"}, {"id": "6536896", "gmt": "9", "airport_id": "4122", "iata_code": "KWJ", "city_iata_code": "KWJ", "icao_code": "RKJJ", "country_iso2": "KR", "geoname_id": "6300415", "latitude": "35.140175", "longitude": "126.81021", "airport_name": "Gwangju", "country_name": "South Korea", "phone_number": null, "timezone": "Asia/Seoul"}, {"id": "6536897", "gmt": "-9", "airport_id": "4123", "iata_code": "KWK", "city_iata_code": "KWK", "icao_code": "PAGG", "country_iso2": "US", "geoname_id": "5866991", "latitude": "59.833332", "longitude": "-163.13333", "airport_name": "Kwigillingok", "country_name": "United States", "phone_number": null, "timezone": "America/Nome"}, {"id": "6536898", "gmt": "8", "airport_id": "4124", "iata_code": "KWL", "city_iata_code": "KWL", "icao_code": "ZGKL", "country_iso2": "CN", "geoname_id": "6301362", "latitude": "25.133333", "longitude": "110.316666", "airport_name": "Guilin", "country_name": "China", "phone_number": null, "timezone": "Asia/Shanghai"}, {"id": "6536899", "gmt": "10", "airport_id": "4125", "iata_code": "KWM", "city_iata_code": "KWM", "icao_code": "YKOW", "country_iso2": "AU", "geoname_id": "7730262", "latitude": "-15.4875", "longitude": "141.74834", "airport_name": "Kowanyama", "country_name": "Australia", "phone_number": null, "timezone": "Australia/Brisbane"}, {"id": "6536900", "gmt": "-9", "airport_id": "4126", "iata_code": "KWN", "city_iata_code": "KWN", "icao_code": "PAQH", "country_iso2": "US", "geoname_id": "5872344", "latitude": "59.761112", "longitude": "-161.83333", "airport_name": "Kwinhagak", "country_name": "United States", "phone_number": null, "timezone": "America/Anchorage"}, {"id": "6536905", "gmt": "-9", "airport_id": "4131", "iata_code": "KWT", "city_iata_code": "KWT", "icao_code": "PFKW", "country_iso2": "US", "geoname_id": "5866986", "latitude": "60.808887", "longitude": "-161.4375", "airport_name": "Kwethluk", "country_name": "United States", "phone_number": null, "timezone": "America/Anchorage"}, {"id": "6536908", "gmt": "2", "airport_id": "4134", "iata_code": "KWZ", "city_iata_code": "KWZ", "icao_code": "FZQM", "country_iso2": "CD", "geoname_id": "6297155", "latitude": "-10.766667", "longitude": "25.506945", "airport_name": "Kolwezi", "country_name": "Democratic Republic of the Congo", "phone_number": null, "timezone": "Africa/Lubumbashi"}, {"id": "6536910", "gmt": "2", "airport_id": "4136", "iata_code": "KXE", "city_iata_code": "KXE", "icao_code": "FAKD", "country_iso2": "ZA", "geoname_id": "989921", "latitude": "-26.866667", "longitude": "26.716667", "airport_name": "Klerksdorp", "country_name": "South Africa", "phone_number": null, "timezone": "Africa/Johannesburg"}, {"id": "6536911", "gmt": "12", "airport_id": "4137", "iata_code": "KXF", "city_iata_code": "KXF", "icao_code": "NFNO", "country_iso2": "FJ", "geoname_id": "6453426", "latitude": "-17.333332", "longitude": "179.83333", "airport_name": "Koro Island", "country_name": null, "phone_number": null, "timezone": "Pacific/Fiji"}, {"id": "6536912", "gmt": "10", "airport_id": "4138", "iata_code": "KXK", "city_iata_code": "KXK", "icao_code": "UHKK", "country_iso2": "RU", "geoname_id": "7668504", "latitude": "50.4", "longitude": "136.95", "airport_name": "Komsomolsk Na Amure", "country_name": "Russia", "phone_number": null, "timezone": "Asia/Vladivostok"}, {"id": "6536914", "gmt": "3", "airport_id": "4140", "iata_code": "KYA", "city_iata_code": "KYA", "icao_code": "LTAN", "country_iso2": "TR", "geoname_id": "6299732", "latitude": "37.979168", "longitude": "32.56222", "airport_name": "Konya", "country_name": "Turkey", "phone_number": null, "timezone": "Europe/Istanbul"}, {"id": "6536915", "gmt": "8", "airport_id": "4141", "iata_code": "KYD", "city_iata_code": "KYD", "icao_code": "RCLY", "country_iso2": "TW", "geoname_id": "6300299", "latitude": "22.083332", "longitude": "121.5", "airport_name": "Orchid Island", "country_name": "Taiwan", "phone_number": null, "timezone": "Asia/Taipei"}, {"id": "6536916", "gmt": "2", "airport_id": "4142", "iata_code": "KYE", "city_iata_code": "KYE", "icao_code": "OLKA", "country_iso2": "LB", "geoname_id": "7668392", "latitude": "34.58611", "longitude": "36.002777", "airport_name": "Kleyate", "country_name": "Lebanon", "phone_number": null, "timezone": "Asia/Beirut"}, {"id": "6536918", "gmt": "9.30", "airport_id": "4144", "iata_code": "KYI", "city_iata_code": "KYI", "icao_code": "YYTA", "country_iso2": "AU", "geoname_id": "7731203", "latitude": "-31.483334", "longitude": "131.86667", "airport_name": "Yalata Mission", "country_name": "Australia", "phone_number": null, "timezone": "Australia/Adelaide"}, {"id": "6536919", "gmt": "-9", "airport_id": "4145", "iata_code": "KYK", "city_iata_code": "KYK", "icao_code": "PAKY", "country_iso2": "US", "geoname_id": "5865859", "latitude": "57.566113", "longitude": "-154.45", "airport_name": "Karluk", "country_name": "United States", "phone_number": null, "timezone": "America/Anchorage"}, {"id": "6536922", "gmt": "6.30", "airport_id": "4148", "iata_code": "KYP", "city_iata_code": "KYP", "icao_code": "VYKP", "country_iso2": "MM", "geoname_id": null, "latitude": "19.433332", "longitude": "93.53333", "airport_name": "Kyaukpyu", "country_name": null, "phone_number": null, "timezone": "Asia/Rangoon"}, {"id": "6536923", "gmt": null, "airport_id": "4149", "iata_code": "KYS", "city_iata_code": "KYS", "icao_code": "GAKY", "country_iso2": "ML", "geoname_id": "6297174", "latitude": "14.431944", "longitude": "-11.439444", "airport_name": "Kayes", "country_name": "Mali", "phone_number": null, "timezone": "Africa/Bamako"}, {"id": "6536924", "gmt": "6.30", "airport_id": "4150", "iata_code": "KYT", "city_iata_code": "KYT", "icao_code": "VYKU", "country_iso2": "MM", "geoname_id": "7731204", "latitude": "21.4", "longitude": "94.13333", "airport_name": "Kyauktaw", "country_name": null, "phone_number": null, "timezone": "Asia/Rangoon"}, {"id": "6536925", "gmt": "-9", "airport_id": "4151", "iata_code": "KYU", "city_iata_code": "KYU", "icao_code": "PFKU", "country_iso2": "US", "geoname_id": "5866754", "latitude": "64.87806", "longitude": "-157.71306", "airport_name": "Koyukuk", "country_name": "United States", "phone_number": null, "timezone": "America/Anchorage"}, {"id": "6536928", "gmt": "7", "airport_id": "4154", "iata_code": "KYZ", "city_iata_code": "KYZ", "icao_code": "UNKY", "country_iso2": "RU", "geoname_id": "7668524", "latitude": "51.7", "longitude": "94.46667", "airport_name": "Kyzyl", "country_name": "Russia", "phone_number": null, "timezone": "Asia/Krasnoyarsk"}, {"id": "6536930", "gmt": "7", "airport_id": "4156", "iata_code": "KZC", "city_iata_code": "KZC", "icao_code": "VDKH", "country_iso2": "KH", "geoname_id": "7668583", "latitude": "12.333333", "longitude": "104.583336", "airport_name": "Kompong-Chhna", "country_name": "Cambodia", "phone_number": null, "timezone": "Asia/Phnom_Penh"}, {"id": "6536933", "gmt": "1", "airport_id": "4159", "iata_code": "KZG", "city_iata_code": "KZG", "icao_code": "ETIN", "country_iso2": "DE", "geoname_id": "6296850", "latitude": "49.733334", "longitude": "10.15", "airport_name": "Kitzingen", "country_name": "Germany", "phone_number": null, "timezone": "Europe/Berlin"}, {"id": "6536935", "gmt": "2", "airport_id": "4161", "iata_code": "KZI", "city_iata_code": "KZI", "icao_code": "LGKZ", "country_iso2": "GR", "geoname_id": "6299497", "latitude": "40.288612", "longitude": "21.841944", "airport_name": "Philippos Airport", "country_name": "Greece", "phone_number": null, "timezone": "Europe/Athens"}, {"id": "6536936", "gmt": "3", "airport_id": "4162", "iata_code": "KZN", "city_iata_code": "KZN", "icao_code": "UWKD", "country_iso2": "RU", "geoname_id": "6301022", "latitude": "55.60844", "longitude": "49.29824", "airport_name": "Kazan", "country_name": "Russia", "phone_number": null, "timezone": "Europe/Moscow"}, {"id": "6536937", "gmt": "6", "airport_id": "4163", "iata_code": "KZO", "city_iata_code": "KZO", "icao_code": "UAOO", "country_iso2": "KZ", "geoname_id": "6300918", "latitude": "44.712223", "longitude": "65.59288", "airport_name": "Kzyl-Orda", "country_name": "Kazakhstan", "phone_number": null, "timezone": "Asia/Qyzylorda"}, {"id": "6536939", "gmt": "2", "airport_id": "4165", "iata_code": "KZS", "city_iata_code": "KZS", "icao_code": "LGKJ", "country_iso2": "GR", "geoname_id": "7730631", "latitude": "36.083332", "longitude": "29.333332", "airport_name": "Kastelorizo", "country_name": "Greece", "phone_number": null, "timezone": "Europe/Athens"}, {"id": "6536940", "gmt": "-7", "airport_id": "4166", "iata_code": "LAA", "city_iata_code": "LAA", "icao_code": "KLAA", "country_iso2": "US", "geoname_id": "5427960", "latitude": "38.06861", "longitude": "-102.69028", "airport_name": "Lamar Field", "country_name": "United States", "phone_number": null, "timezone": "America/Denver"}, {"id": "6536943", "gmt": "1", "airport_id": "4169", "iata_code": "LAD", "city_iata_code": "LAD", "icao_code": "FNLU", "country_iso2": "AO", "geoname_id": "6297063", "latitude": "-8.847951", "longitude": "13.234862", "airport_name": "4 de Fevereiro", "country_name": "Angola", "phone_number": null, "timezone": "Africa/Luanda"}, {"id": "6536944", "gmt": "10", "airport_id": "4170", "iata_code": "LAE", "city_iata_code": "LAE", "icao_code": "AYNZ", "country_iso2": "PG", "geoname_id": "7668086", "latitude": "-6.562694", "longitude": "146.72757", "airport_name": "Nadzab", "country_name": "Papua New Guinea", "phone_number": null, "timezone": "Pacific/Port_Moresby"}, {"id": "6536948", "gmt": "1", "airport_id": "4174", "iata_code": "LAI", "city_iata_code": "LAI", "icao_code": "LFRO", "country_iso2": "FR", "geoname_id": "6299459", "latitude": "48.754166", "longitude": "-3.481944", "airport_name": "Servel", "country_name": "France", "phone_number": null, "timezone": "Europe/Paris"}, {"id": "6536949", "gmt": "-3", "airport_id": "4175", "iata_code": "LAJ", "city_iata_code": "LAJ", "icao_code": "SBLJ", "country_iso2": "BR", "geoname_id": "7730156", "latitude": "-27.8", "longitude": "-50.316666", "airport_name": "Lages", "country_name": "Brazil", "phone_number": null, "timezone": "America/Sao_Paulo"}, {"id": "6536950", "gmt": "-7", "airport_id": "4176", "iata_code": "LAK", "city_iata_code": "LAK", "icao_code": "CYKD", "country_iso2": "CA", "geoname_id": "6296214", "latitude": "68.22222", "longitude": "-134.98584", "airport_name": "Aklavik", "country_name": "Canada", "phone_number": null, "timezone": "America/Yellowknife"}, {"id": "6536951", "gmt": "-5", "airport_id": "4177", "iata_code": "LAL", "city_iata_code": "LAL", "icao_code": "KLAL", "country_iso2": "US", "geoname_id": "4161446", "latitude": "27.98889", "longitude": "-82.014725", "airport_name": "Municipal", "country_name": "United States", "phone_number": null, "timezone": "America/New_York"}, {"id": "6536952", "gmt": "-7", "airport_id": "4178", "iata_code": "LAM", "city_iata_code": "LAM", "icao_code": "KLAM", "country_iso2": "US", "geoname_id": "5476830", "latitude": "35.88333", "longitude": "-106.316666", "airport_name": "Los Alamos", "country_name": "United States", "phone_number": null, "timezone": "America/Denver"}, {"id": "6536953", "gmt": "-5", "airport_id": "4179", "iata_code": "LAN", "city_iata_code": "LAN", "icao_code": "KLAN", "country_iso2": "US", "geoname_id": "6301632", "latitude": "42.774185", "longitude": "-84.58958", "airport_name": "Capital City", "country_name": "United States", "phone_number": null, "timezone": "America/Detroit"}, {"id": "6536954", "gmt": "8", "airport_id": "4180", "iata_code": "LAO", "city_iata_code": "LAO", "icao_code": "RPLI", "country_iso2": "PH", "geoname_id": "6300473", "latitude": "18.182407", "longitude": "120.53413", "airport_name": "Laoag International Airport", "country_name": "Philippines", "phone_number": null, "timezone": "Asia/Manila"}, {"id": "6536955", "gmt": "-7", "airport_id": "4181", "iata_code": "LAP", "city_iata_code": "LAP", "icao_code": "MMLP", "country_iso2": "MX", "geoname_id": "6299852", "latitude": "24.076088", "longitude": "-110.367836", "airport_name": "General Manuel M\u00e1rquez De Le\u00f3n International Airport", "country_name": "Mexico", "phone_number": null, "timezone": "America/Mazatlan"}, {"id": "6536956", "gmt": "2", "airport_id": "4182", "iata_code": "LAQ", "city_iata_code": "LAQ", "icao_code": "HLLQ", "country_iso2": "LY", "geoname_id": "7668297", "latitude": "32.788612", "longitude": "21.964167", "airport_name": "La Braq", "country_name": "Libya", "phone_number": null, "timezone": "Africa/Tripoli"}, {"id": "6536957", "gmt": "-7", "airport_id": "4183", "iata_code": "LAR", "city_iata_code": "LAR", "icao_code": "KLAR", "country_iso2": "US", "geoname_id": "5830062", "latitude": "41.31361", "longitude": "-105.67306", "airport_name": "General Brees Field", "country_name": "United States", "phone_number": null, "timezone": "America/Denver"}, {"id": "6536958", "gmt": "-8", "airport_id": "4184", "iata_code": "LAS", "city_iata_code": "LAS", "icao_code": "KLAS", "country_iso2": "US", "geoname_id": "5507974", "latitude": "36.086945", "longitude": "-115.1486", "airport_name": "Harry Reid International Airport", "country_name": "United States", "phone_number": "702-261-5211", "timezone": "America/Los_Angeles"}, {"id": "6536960", "gmt": "3", "airport_id": "4186", "iata_code": "LAU", "city_iata_code": "LAU", "icao_code": "HKLU", "country_iso2": "KE", "geoname_id": "6297314", "latitude": "-2.25", "longitude": "40.911667", "airport_name": "Lamu", "country_name": "Kenya", "phone_number": null, "timezone": "Africa/Nairobi"}, {"id": "6536962", "gmt": "-6", "airport_id": "4188", "iata_code": "LAW", "city_iata_code": "LAW", "icao_code": "KLAW", "country_iso2": "US", "geoname_id": "4540749", "latitude": "34.56972", "longitude": "-98.416115", "airport_name": "Municipal", "country_name": "United States", "phone_number": null, "timezone": "America/Chicago"}, {"id": "6536963", "gmt": "-8", "airport_id": "4189", "iata_code": "LAX", "city_iata_code": "LAX", "icao_code": "KLAX", "country_iso2": "US", "geoname_id": "5368418", "latitude": "33.943398", "longitude": "-118.40828", "airport_name": "Los Angeles International", "country_name": "United States", "phone_number": "310-646-5252", "timezone": "America/Los_Angeles"}, {"id": "6536964", "gmt": "2", "airport_id": "4190", "iata_code": "LAY", "city_iata_code": "LAY", "icao_code": "FALY", "country_iso2": "ZA", "geoname_id": "6296906", "latitude": "-28.566668", "longitude": "29.75", "airport_name": "Ladysmith", "country_name": "South Africa", "phone_number": null, "timezone": "Africa/Johannesburg"}, {"id": "6536965", "gmt": "-3", "airport_id": "4191", "iata_code": "LAZ", "city_iata_code": "LAZ", "icao_code": "SBLP", "country_iso2": "BR", "geoname_id": "6300639", "latitude": "-13.256944", "longitude": "-43.4125", "airport_name": "Bom Jesus Da Lapa", "country_name": "Brazil", "phone_number": null, "timezone": "America/Bahia"}, {"id": "6536966", "gmt": null, "airport_id": "4192", "iata_code": "LBA", "city_iata_code": "LBA", "icao_code": "EGNM", "country_iso2": "GB", "geoname_id": "6296608", "latitude": "53.86934", "longitude": "-1.659985", "airport_name": "Leeds/bradford", "country_name": "United Kingdom", "phone_number": null, "timezone": "Europe/London"}, {"id": "6536967", "gmt": "-6", "airport_id": "4193", "iata_code": "LBB", "city_iata_code": "LBB", "icao_code": "KLBB", "country_iso2": "US", "geoname_id": "5525589", "latitude": "33.65622", "longitude": "-101.8223", "airport_name": "Lubbock Preston Smith International", "country_name": "United States", "phone_number": null, "timezone": "America/Chicago"}, {"id": "6536968", "gmt": "1", "airport_id": "4194", "iata_code": "LBC", "city_iata_code": "HAM", "icao_code": "EDHL", "country_iso2": "DE", "geoname_id": "3209094", "latitude": "53.80527", "longitude": "10.701162", "airport_name": "L\u00fcbeck Blankensee", "country_name": "Germany", "phone_number": null, "timezone": "Europe/Berlin"}, {"id": "6536969", "gmt": "5", "airport_id": "4195", "iata_code": "LBD", "city_iata_code": "LBD", "icao_code": "UTDL", "country_iso2": "TJ", "geoname_id": "7668542", "latitude": "40.219887", "longitude": "69.6965", "airport_name": "Khudzhand", "country_name": "Tajikistan", "phone_number": null, "timezone": "Asia/Dushanbe"}, {"id": "6536970", "gmt": "-5", "airport_id": "4196", "iata_code": "LBE", "city_iata_code": "LBE", "icao_code": "KLBE", "country_iso2": "US", "geoname_id": "5197227", "latitude": "40.27639", "longitude": "-79.40278", "airport_name": "Westmoreland County", "country_name": "United States", "phone_number": null, "timezone": "America/New_York"}, {"id": "6536971", "gmt": "-6", "airport_id": "4197", "iata_code": "LBF", "city_iata_code": "LBF", "icao_code": "KLBF", "country_iso2": "US", "geoname_id": "5697939", "latitude": "41.128334", "longitude": "-100.69667", "airport_name": "Lee Bird Field", "country_name": "United States", "phone_number": null, "timezone": "America/Chicago"}, {"id": "6536972", "gmt": "1", "airport_id": "4198", "iata_code": "LBG", "city_iata_code": "PAR", "icao_code": "LFPB", "country_iso2": "FR", "geoname_id": "2988502", "latitude": "48.971943", "longitude": "2.4425", "airport_name": "Le Bourget", "country_name": "France", "phone_number": null, "timezone": "Europe/Paris"}, {"id": "6536974", "gmt": "1", "airport_id": "4200", "iata_code": "LBI", "city_iata_code": "LBI", "icao_code": "LFCI", "country_iso2": "FR", "geoname_id": "6299384", "latitude": "43.933334", "longitude": "2.15", "airport_name": "Le Sequestre", "country_name": "France", "phone_number": null, "timezone": "Europe/Paris"}, {"id": "6536975", "gmt": "8", "airport_id": "4201", "iata_code": "LBJ", "city_iata_code": "LBJ", "icao_code": "WRKO", "country_iso2": "ID", "geoname_id": null, "latitude": "-8.516667", "longitude": "119.88333", "airport_name": "Mutiara", "country_name": "Indonesia", "phone_number": null, "timezone": "Asia/Makassar"}, {"id": "6536977", "gmt": "-6", "airport_id": "4203", "iata_code": "LBL", "city_iata_code": "LBL", "icao_code": "KLBL", "country_iso2": "US", "geoname_id": "5445827", "latitude": "37.044445", "longitude": "-100.960556", "airport_name": "Municipal", "country_name": "United States", "phone_number": null, "timezone": "America/Chicago"}, {"id": "6536980", "gmt": "2", "airport_id": "4206", "iata_code": "LBO", "city_iata_code": "LBO", "icao_code": "FZVI", "country_iso2": "CD", "geoname_id": "6297163", "latitude": "-4.966667", "longitude": "23.45", "airport_name": "Lusambo", "country_name": "Democratic Republic of the Congo", "phone_number": null, "timezone": "Africa/Lubumbashi"}, {"id": "6536982", "gmt": "1", "airport_id": "4208", "iata_code": "LBQ", "city_iata_code": "LBQ", "icao_code": "FOGR", "country_iso2": "GA", "geoname_id": "6297065", "latitude": "-0.714722", "longitude": "10.239444", "airport_name": "Lambarene", "country_name": "Gabon", "phone_number": null, "timezone": "Africa/Libreville"}, {"id": "6536983", "gmt": "-4", "airport_id": "4209", "iata_code": "LBR", "city_iata_code": "LBR", "icao_code": "SWLB", "country_iso2": "BR", "geoname_id": "7731210", "latitude": "-7.25", "longitude": "-64.85", "airport_name": "Labrea", "country_name": "Brazil", "phone_number": null, "timezone": "America/Manaus"}, {"id": "6536984", "gmt": "12", "airport_id": "4210", "iata_code": "LBS", "city_iata_code": "LBS", "icao_code": "NFNL", "country_iso2": "FJ", "geoname_id": "6324586", "latitude": "-16.466215", "longitude": "179.33766", "airport_name": "Labasa", "country_name": null, "phone_number": null, "timezone": "Pacific/Fiji"}, {"id": "6536985", "gmt": "-5", "airport_id": "4211", "iata_code": "LBT", "city_iata_code": "LBT", "icao_code": "KLBT", "country_iso2": "US", "geoname_id": "4477529", "latitude": "34.61404", "longitude": "-79.06011", "airport_name": "Lumberton", "country_name": "United States", "phone_number": null, "timezone": "America/New_York"}, {"id": "6536986", "gmt": "8", "airport_id": "4212", "iata_code": "LBU", "city_iata_code": "LBU", "icao_code": "WBKL", "country_iso2": "MY", "geoname_id": "6301212", "latitude": "5.294355", "longitude": "115.24916", "airport_name": "Labuan", "country_name": "Malaysia", "phone_number": null, "timezone": "Asia/Kuching"}, {"id": "6536987", "gmt": "1", "airport_id": "4213", "iata_code": "LBV", "city_iata_code": "LBV", "icao_code": "FOOL", "country_iso2": "GA", "geoname_id": "6297072", "latitude": "0.456963", "longitude": "9.409852", "airport_name": "Libreville", "country_name": "Gabon", "phone_number": null, "timezone": "Africa/Libreville"}, {"id": "6536988", "gmt": "8", "airport_id": "4214", "iata_code": "LBW", "city_iata_code": "LBW", "icao_code": "WRLB", "country_iso2": "ID", "geoname_id": "6301273", "latitude": "0.583333", "longitude": "115.166664", "airport_name": "Long Bawan", "country_name": "Indonesia", "phone_number": null, "timezone": "Asia/Makassar"}, {"id": "6536990", "gmt": "1", "airport_id": "4216", "iata_code": "LBY", "city_iata_code": "LBY", "icao_code": "LFRE", "country_iso2": "FR", "geoname_id": "6694657", "latitude": "47.28889", "longitude": "-2.345833", "airport_name": "Montoir", "country_name": "France", "phone_number": null, "timezone": "Europe/Paris"}, {"id": "6536991", "gmt": "1", "airport_id": "4217", "iata_code": "LBZ", "city_iata_code": "LBZ", "icao_code": "FNLK", "country_iso2": "AO", "geoname_id": "8261009", "latitude": "-8.383333", "longitude": "20.666668", "airport_name": "Lukapa", "country_name": "Angola", "phone_number": null, "timezone": "Africa/Luanda"}, {"id": "6536992", "gmt": "2", "airport_id": "4218", "iata_code": "LCA", "city_iata_code": "LCA", "icao_code": "LCLK", "country_iso2": "CY", "geoname_id": "414646", "latitude": "34.880867", "longitude": "33.62599", "airport_name": "Larnaca", "country_name": "Cyprus", "phone_number": "-81307", "timezone": "Asia/Nicosia"}, {"id": "6536994", "gmt": "1", "airport_id": "4220", "iata_code": "LCC", "city_iata_code": "LCC", "icao_code": "LIBN", "country_iso2": "IT", "geoname_id": "6299539", "latitude": "40.24278", "longitude": "18.133333", "airport_name": "Galatina", "country_name": "Italy", "phone_number": null, "timezone": "Europe/Rome"}, {"id": "6536996", "gmt": "-6", "airport_id": "4222", "iata_code": "LCE", "city_iata_code": "LCE", "icao_code": "MHLC", "country_iso2": "HN", "geoname_id": "6299812", "latitude": "15.740556", "longitude": "-86.85722", "airport_name": "Goloson International", "country_name": "Honduras", "phone_number": null, "timezone": "America/Tegucigalpa"}, {"id": "6536998", "gmt": "1", "airport_id": "4224", "iata_code": "LCG", "city_iata_code": "LCG", "icao_code": "LECO", "country_iso2": "ES", "geoname_id": "6299332", "latitude": "43.30236", "longitude": "-8.381923", "airport_name": "La Coruna", "country_name": "Spain", "phone_number": null, "timezone": "Europe/Madrid"}, {"id": "6536999", "gmt": "-6", "airport_id": "4225", "iata_code": "LCH", "city_iata_code": "LCH", "icao_code": "KLCH", "country_iso2": "US", "geoname_id": "4330249", "latitude": "30.131111", "longitude": "-93.225555", "airport_name": "Municipal", "country_name": "United States", "phone_number": null, "timezone": "America/Chicago"}, {"id": "6537000", "gmt": "-5", "airport_id": "4226", "iata_code": "LCI", "city_iata_code": "LCI", "icao_code": "KLCI", "country_iso2": "US", "geoname_id": "5088444", "latitude": "43.57139", "longitude": "-71.42111", "airport_name": "Municipal", "country_name": "United States", "phone_number": null, "timezone": "America/New_York"}, {"id": "6537001", "gmt": "1", "airport_id": "4227", "iata_code": "LCJ", "city_iata_code": "LCJ", "icao_code": "EPLL", "country_iso2": "PL", "geoname_id": "3093127", "latitude": "51.721943", "longitude": "19.398333", "airport_name": "Lodz Lublinek", "country_name": "Poland", "phone_number": null, "timezone": "Europe/Warsaw"}, {"id": "6537002", "gmt": "-5", "airport_id": "4228", "iata_code": "LCK", "city_iata_code": "CMH", "icao_code": "KLCK", "country_iso2": "US", "geoname_id": "4522474", "latitude": "39.816666", "longitude": "-82.933334", "airport_name": "Rickenbacker", "country_name": "United States", "phone_number": null, "timezone": "America/New_York"}, {"id": "6537003", "gmt": "-5", "airport_id": "4229", "iata_code": "LCL", "city_iata_code": "LCL", "icao_code": "MULM", "country_iso2": "CU", "geoname_id": "7730327", "latitude": "22.283333", "longitude": "-83.61667", "airport_name": "La Coloma", "country_name": "Cuba", "phone_number": null, "timezone": "America/Havana"}, {"id": "6537004", "gmt": "-3", "airport_id": "4230", "iata_code": "LCM", "city_iata_code": "LCM", "icao_code": "SACC", "country_iso2": "AR", "geoname_id": "7730763", "latitude": "-30.966667", "longitude": "-64.5", "airport_name": "La Cumbre", "country_name": "Argentina", "phone_number": null, "timezone": "America/Argentina/Cordoba"}, {"id": "6537005", "gmt": "9.30", "airport_id": "4231", "iata_code": "LCN", "city_iata_code": "LCN", "icao_code": "YBLC", "country_iso2": "AU", "geoname_id": "7731212", "latitude": "-30.516666", "longitude": "139.35", "airport_name": "Balcanoona", "country_name": "Australia", "phone_number": null, "timezone": "Australia/Adelaide"}, {"id": "6537006", "gmt": "1", "airport_id": "4232", "iata_code": "LCO", "city_iata_code": "LCO", "icao_code": "FCBL", "country_iso2": "CG", "geoname_id": "7730498", "latitude": "-2.45", "longitude": "14.533333", "airport_name": "Lague", "country_name": "Republic of the Congo", "phone_number": null, "timezone": "Africa/Brazzaville"}, {"id": "6537008", "gmt": "-5", "airport_id": "4234", "iata_code": "LCQ", "city_iata_code": "LCQ", "icao_code": "KLCQ", "country_iso2": "US", "geoname_id": "4161193", "latitude": "30.320557", "longitude": "-82.66861", "airport_name": "Lake City", "country_name": "United States", "phone_number": null, "timezone": "America/New_York"}, {"id": "6537011", "gmt": "1", "airport_id": "4237", "iata_code": "LCV", "city_iata_code": "LCV", "icao_code": "LIQL", "country_iso2": "IT", "geoname_id": "7730633", "latitude": "43.833332", "longitude": "10.583333", "airport_name": "Lucca", "country_name": "Italy", "phone_number": null, "timezone": "Europe/Rome"}, {"id": "6537013", "gmt": null, "airport_id": "4239", "iata_code": "LCY", "city_iata_code": "LON", "icao_code": "EGLC", "country_iso2": "GB", "geoname_id": "6296599", "latitude": "51.5", "longitude": "0.05", "airport_name": "London City Airport", "country_name": "United Kingdom", "phone_number": null, "timezone": "Europe/London"}, {"id": "6537015", "gmt": "5.30", "airport_id": "4241", "iata_code": "LDA", "city_iata_code": "LDA", "icao_code": "VEMH", "country_iso2": "IN", "geoname_id": "7731215", "latitude": "25.033333", "longitude": "88.15", "airport_name": "Malda", "country_name": "India", "phone_number": null, "timezone": "Asia/Kolkata"}, {"id": "6537016", "gmt": "-3", "airport_id": "4242", "iata_code": "LDB", "city_iata_code": "LDB", "icao_code": "SBLO", "country_iso2": "BR", "geoname_id": "6300638", "latitude": "-23.328457", "longitude": "-51.137714", "airport_name": "Londrina", "country_name": "Brazil", "phone_number": null, "timezone": "America/Sao_Paulo"}, {"id": "6537017", "gmt": "10", "airport_id": "4243", "iata_code": "LDC", "city_iata_code": "LDC", "icao_code": "YLIN", "country_iso2": "AU", "geoname_id": "7731216", "latitude": "-21", "longitude": "149", "airport_name": "Lindeman Island", "country_name": "Australia", "phone_number": null, "timezone": "Australia/Lindeman"}, {"id": "6537018", "gmt": "1", "airport_id": "4244", "iata_code": "LDE", "city_iata_code": "LDE", "icao_code": "LFBT", "country_iso2": "FR", "geoname_id": "6299378", "latitude": "43.18651", "longitude": "0.003368", "airport_name": "Tarbes Ossun Lourdes", "country_name": "France", "phone_number": null, "timezone": "Europe/Paris"}, {"id": "6537019", "gmt": "3", "airport_id": "4245", "iata_code": "LDG", "city_iata_code": "LDG", "icao_code": "ULAL", "country_iso2": "RU", "geoname_id": "8030063", "latitude": "64.9", "longitude": "45.75", "airport_name": "Leshukonskoye", "country_name": "Russia", "phone_number": null, "timezone": "Europe/Moscow"}]}