{"pagination": {"offset": 5000, "limit": 100, "count": 100, "total": 6685}, "data": [{"id": "6540018", "gmt": "-5", "airport_id": "7244", "iata_code": "SNU", "city_iata_code": "SNU", "icao_code": "MUSC", "country_iso2": "CU", "geoname_id": null, "latitude": "22.491943", "longitude": "-79.94194", "airport_name": "Abel Santa Maria", "country_name": "Cuba", "phone_number": null, "timezone": "America/Havana"}, {"id": "6540020", "gmt": "6.30", "airport_id": "7246", "iata_code": "SNW", "city_iata_code": "SNW", "icao_code": "VYTD", "country_iso2": "MM", "geoname_id": "7910206", "latitude": "18.453876", "longitude": "94.30038", "airport_name": "Thandwe", "country_name": null, "phone_number": null, "timezone": "Asia/Rangoon"}, {"id": "6540022", "gmt": "-7", "airport_id": "7248", "iata_code": "SNY", "city_iata_code": "SNY", "icao_code": "KSNY", "country_iso2": "US", "geoname_id": "5699564", "latitude": "41.099445", "longitude": "-102.9825", "airport_name": "Sidney", "country_name": "United States", "phone_number": null, "timezone": "America/Denver"}, {"id": "6540025", "gmt": "1", "airport_id": "7251", "iata_code": "SOB", "city_iata_code": "SOB", "icao_code": "LHSM", "country_iso2": "HU", "geoname_id": "7730097", "latitude": "46.71347", "longitude": "17.240444", "airport_name": "S\u00e1rmell\u00e9k/Balaton", "country_name": "Hungary", "phone_number": null, "timezone": "Europe/Budapest"}, {"id": "6540026", "gmt": "7", "airport_id": "7252", "iata_code": "SOC", "city_iata_code": "SOC", "icao_code": "WRSQ", "country_iso2": "ID", "geoname_id": "6301286", "latitude": "-7.51583", "longitude": "110.75667", "airport_name": "Adi Sumarmo", "country_name": "Indonesia", "phone_number": null, "timezone": "Asia/Jakarta"}, {"id": "6540027", "gmt": "-3", "airport_id": "7253", "iata_code": "SOD", "city_iata_code": "SOD", "icao_code": "SDCO", "country_iso2": "BR", "geoname_id": "7534511", "latitude": "-23.483334", "longitude": "-47.45", "airport_name": "Sorocaba", "country_name": "Brazil", "phone_number": null, "timezone": "America/Sao_Paulo"}, {"id": "6540028", "gmt": "1", "airport_id": "7254", "iata_code": "SOE", "city_iata_code": "SOE", "icao_code": "FCOS", "country_iso2": "CG", "geoname_id": "6296963", "latitude": "2", "longitude": "14.166667", "airport_name": "Souanke", "country_name": "Republic of the Congo", "phone_number": null, "timezone": "Africa/Brazzaville"}, {"id": "6540029", "gmt": "2", "airport_id": "7255", "iata_code": "SOF", "city_iata_code": "SOF", "icao_code": "LBSF", "country_iso2": "BG", "geoname_id": "6299309", "latitude": "42.688343", "longitude": "23.41443", "airport_name": "Sofia", "country_name": "Bulgaria", "phone_number": null, "timezone": "Europe/Sofia"}, {"id": "6540030", "gmt": "1", "airport_id": "7256", "iata_code": "SOG", "city_iata_code": "SOG", "icao_code": "ENSG", "country_iso2": "NO", "geoname_id": "7288345", "latitude": "61.158127", "longitude": "7.136988", "airport_name": "Haukasen", "country_name": "Norway", "phone_number": null, "timezone": "Europe/Oslo"}, {"id": "6540033", "gmt": "1", "airport_id": "7259", "iata_code": "SOJ", "city_iata_code": "SOJ", "icao_code": "ENSR", "country_iso2": "NO", "geoname_id": "6296773", "latitude": "69.78333", "longitude": "20.933332", "airport_name": "Sorkjosen", "country_name": "Norway", "phone_number": null, "timezone": "Europe/Oslo"}, {"id": "6540034", "gmt": "2", "airport_id": "7260", "iata_code": "SOK", "city_iata_code": "SOK", "icao_code": "FXSM", "country_iso2": "LS", "geoname_id": "7730545", "latitude": "-29.833332", "longitude": "28.5", "airport_name": "Semongkong", "country_name": "Lesotho", "phone_number": null, "timezone": "Africa/Maseru"}, {"id": "6540036", "gmt": "-4", "airport_id": "7262", "iata_code": "SOM", "city_iata_code": "SOM", "icao_code": "SVST", "country_iso2": "VE", "geoname_id": "6300873", "latitude": "8.949167", "longitude": "-64.145836", "airport_name": "Edmundo Barrios", "country_name": "Venezuela", "phone_number": null, "timezone": "America/Caracas"}, {"id": "6540037", "gmt": "11", "airport_id": "7263", "iata_code": "SON", "city_iata_code": "SON", "icao_code": "NVSS", "country_iso2": "VU", "geoname_id": "6299971", "latitude": "-15.508251", "longitude": "167.21873", "airport_name": "Pekoa", "country_name": "Vanuatu", "phone_number": null, "timezone": "Pacific/Efate"}, {"id": "6540038", "gmt": "1", "airport_id": "7264", "iata_code": "SOO", "city_iata_code": "SOO", "icao_code": "ESCL", "country_iso2": "SE", "geoname_id": "6301534", "latitude": "61.3", "longitude": "17.05", "airport_name": "Soderhamn", "country_name": "Sweden", "phone_number": null, "timezone": "Europe/Stockholm"}, {"id": "6540039", "gmt": "-5", "airport_id": "7265", "iata_code": "SOP", "city_iata_code": "SOP", "icao_code": "KSOP", "country_iso2": "US", "geoname_id": "4480054", "latitude": "35.23761", "longitude": "-79.388794", "airport_name": "Pinehurst-S. Pines", "country_name": "United States", "phone_number": null, "timezone": "America/New_York"}, {"id": "6540040", "gmt": "9", "airport_id": "7266", "iata_code": "SOQ", "city_iata_code": "SOQ", "icao_code": "WASS", "country_iso2": "ID", "geoname_id": null, "latitude": "-0.890214", "longitude": "131.29059", "airport_name": "Jefman", "country_name": "Indonesia", "phone_number": null, "timezone": "Asia/Jayapura"}, {"id": "6540042", "gmt": "2", "airport_id": "7268", "iata_code": "SOT", "city_iata_code": "SOT", "icao_code": "EFSO", "country_iso2": "FI", "geoname_id": "6296561", "latitude": "67.38333", "longitude": "26.616667", "airport_name": "Sodankyla", "country_name": "Finland", "phone_number": null, "timezone": "Europe/Helsinki"}, {"id": "6540043", "gmt": null, "airport_id": "7269", "iata_code": "SOU", "city_iata_code": "SOU", "icao_code": "EGHI", "country_iso2": "GB", "geoname_id": "6296592", "latitude": "50.950726", "longitude": "-1.361318", "airport_name": "Southampton Airport", "country_name": "United Kingdom", "phone_number": null, "timezone": "Europe/London"}, {"id": "6540044", "gmt": "-9", "airport_id": "7270", "iata_code": "SOV", "city_iata_code": "SOV", "icao_code": "PASO", "country_iso2": "US", "geoname_id": "5873668", "latitude": "59.4425", "longitude": "-151.70416", "airport_name": "Seldovia", "country_name": "United States", "phone_number": null, "timezone": "America/Anchorage"}, {"id": "6540045", "gmt": "-7", "airport_id": "7271", "iata_code": "SOW", "city_iata_code": "SOW", "icao_code": "KSOW", "country_iso2": "US", "geoname_id": "5314254", "latitude": "34.264442", "longitude": "-110.004166", "airport_name": "Show Low", "country_name": "United States", "phone_number": null, "timezone": "America/Phoenix"}, {"id": "6540047", "gmt": null, "airport_id": "7273", "iata_code": "SOY", "city_iata_code": "SOY", "icao_code": "EGER", "country_iso2": "GB", "geoname_id": "7670897", "latitude": "59.154053", "longitude": "-2.640495", "airport_name": "Stronsay", "country_name": "United Kingdom", "phone_number": null, "timezone": "Europe/London"}, {"id": "6540049", "gmt": "-5", "airport_id": "7275", "iata_code": "SPA", "city_iata_code": "SPA", "icao_code": "KSPA", "country_iso2": "US", "geoname_id": "4597209", "latitude": "34.95", "longitude": "-81.916664", "airport_name": "Spartanburg, Downtown Memorial", "country_name": "United States", "phone_number": null, "timezone": "America/New_York"}, {"id": "6540051", "gmt": null, "airport_id": "7277", "iata_code": "SPC", "city_iata_code": "SPC", "icao_code": "GCLA", "country_iso2": "ES", "geoname_id": "6297187", "latitude": "28.626389", "longitude": "-17.755556", "airport_name": "La Palma", "country_name": "Spain", "phone_number": null, "timezone": "Atlantic/Canary"}, {"id": "6540052", "gmt": "6", "airport_id": "7278", "iata_code": "SPD", "city_iata_code": "SPD", "icao_code": "VGSD", "country_iso2": "BD", "geoname_id": "7668600", "latitude": "25.783333", "longitude": "88.9", "airport_name": "Saidpur", "country_name": "Bangladesh", "phone_number": null, "timezone": "Asia/Dhaka"}, {"id": "6540053", "gmt": "8", "airport_id": "7279", "iata_code": "SPE", "city_iata_code": "SPE", "icao_code": "WBKO", "country_iso2": "MY", "geoname_id": "7731501", "latitude": "4.712222", "longitude": "116.45695", "airport_name": "Sepulot", "country_name": "Malaysia", "phone_number": null, "timezone": "Asia/Kuching"}, {"id": "6540054", "gmt": "-7", "airport_id": "7280", "iata_code": "SPF", "city_iata_code": "SPF", "icao_code": "KSPF", "country_iso2": "US", "geoname_id": "5769288", "latitude": "44.5", "longitude": "-103.86667", "airport_name": "Black Hills", "country_name": "United States", "phone_number": null, "timezone": "America/Denver"}, {"id": "6540055", "gmt": "-5", "airport_id": "7281", "iata_code": "SPG", "city_iata_code": "SPG", "icao_code": "KSPG", "country_iso2": "US", "geoname_id": "4145737", "latitude": "27.766945", "longitude": "-82.625275", "airport_name": "Whitted", "country_name": "United States", "phone_number": null, "timezone": "America/New_York"}, {"id": "6540057", "gmt": "-6", "airport_id": "7283", "iata_code": "SPI", "city_iata_code": "SPI", "icao_code": "KSPI", "country_iso2": "US", "geoname_id": "6299113", "latitude": "39.844166", "longitude": "-89.67889", "airport_name": "Capital", "country_name": "United States", "phone_number": null, "timezone": "America/Chicago"}, {"id": "6540058", "gmt": "2", "airport_id": "7284", "iata_code": "SPJ", "city_iata_code": "SPJ", "icao_code": "LGSP", "country_iso2": "GR", "geoname_id": "7668315", "latitude": "36.983334", "longitude": "22.533333", "airport_name": "Eleftherios Venizelos", "country_name": "Greece", "phone_number": null, "timezone": "Europe/Athens"}, {"id": "6540059", "gmt": "1", "airport_id": "7285", "iata_code": "SPM", "city_iata_code": "SPM", "icao_code": "ETAD", "country_iso2": "DE", "geoname_id": "6296820", "latitude": "50.06547", "longitude": "6.835917", "airport_name": "Spangdahlem", "country_name": "Germany", "phone_number": null, "timezone": "Europe/Berlin"}, {"id": "6540060", "gmt": "10", "airport_id": "7286", "iata_code": "SPN", "city_iata_code": "SPN", "icao_code": "PGSN", "country_iso2": "MP", "geoname_id": "7828758", "latitude": "15.122178", "longitude": "145.72325", "airport_name": "Saipan International", "country_name": "Northern Mariana Islands", "phone_number": null, "timezone": "Pacific/Saipan"}, {"id": "6540062", "gmt": "1", "airport_id": "7288", "iata_code": "SPP", "city_iata_code": "SPP", "icao_code": "FNME", "country_iso2": "AO", "geoname_id": "7668249", "latitude": "-14.6375", "longitude": "17.725555", "airport_name": "Menongue", "country_name": "Angola", "phone_number": null, "timezone": "Africa/Luanda"}, {"id": "6540065", "gmt": "-6", "airport_id": "7291", "iata_code": "SPS", "city_iata_code": "SPS", "icao_code": "KSPS", "country_iso2": "US", "geoname_id": "6326896", "latitude": "33.988335", "longitude": "-98.49194", "airport_name": "Sheppard AFB", "country_name": "United States", "phone_number": null, "timezone": "America/Chicago"}, {"id": "6540067", "gmt": "1", "airport_id": "7293", "iata_code": "SPU", "city_iata_code": "SPU", "icao_code": "LDSP", "country_iso2": "HR", "geoname_id": "3215304", "latitude": "43.536526", "longitude": "16.29946", "airport_name": "Split", "country_name": "Croatia", "phone_number": null, "timezone": "Europe/Zagreb"}, {"id": "6540069", "gmt": "-6", "airport_id": "7295", "iata_code": "SPW", "city_iata_code": "SPW", "icao_code": "KSPW", "country_iso2": "US", "geoname_id": "4877156", "latitude": "43.16389", "longitude": "-95.200836", "airport_name": "Spencer Municipal", "country_name": "United States", "phone_number": null, "timezone": "America/Chicago"}, {"id": "6540070", "gmt": null, "airport_id": "7296", "iata_code": "SPY", "city_iata_code": "SPY", "icao_code": "DISP", "country_iso2": "CI", "geoname_id": "6296442", "latitude": "4.730278", "longitude": "-6.626944", "airport_name": "San Pedro", "country_name": null, "phone_number": null, "timezone": "Africa/Abidjan"}, {"id": "6540071", "gmt": "-6", "airport_id": "7297", "iata_code": "SPZ", "city_iata_code": "SPZ", "icao_code": "KSPZ", "country_iso2": "US", "geoname_id": "4132103", "latitude": "36.183334", "longitude": "-94.166664", "airport_name": "Springdale Municipal", "country_name": "United States", "phone_number": null, "timezone": "America/Chicago"}, {"id": "6540072", "gmt": "-8", "airport_id": "7298", "iata_code": "SQA", "city_iata_code": "SQA", "icao_code": "KIZA", "country_iso2": "US", "geoname_id": "5393389", "latitude": "34.066666", "longitude": "-118.566666", "airport_name": "Santa Ynez", "country_name": "United States", "phone_number": null, "timezone": "America/Los_Angeles"}, {"id": "6540074", "gmt": "8", "airport_id": "7300", "iata_code": "SQC", "city_iata_code": "SQC", "icao_code": "YSCR", "country_iso2": "AU", "geoname_id": "7731503", "latitude": "-31.25", "longitude": "119.35", "airport_name": "Southern Cross", "country_name": "Australia", "phone_number": null, "timezone": "Australia/Perth"}, {"id": "6540077", "gmt": "8", "airport_id": "7303", "iata_code": "SQG", "city_iata_code": "SQG", "icao_code": "WIOS", "country_iso2": "ID", "geoname_id": "6301243", "latitude": "0.083333", "longitude": "111.583336", "airport_name": "Sintang", "country_name": "Indonesia", "phone_number": null, "timezone": "Asia/Makassar"}, {"id": "6540078", "gmt": "7", "airport_id": "7304", "iata_code": "SQH", "city_iata_code": "SQH", "icao_code": "VVNS", "country_iso2": "VN", "geoname_id": "7668651", "latitude": "21.218056", "longitude": "104.025", "airport_name": "Na-San", "country_name": null, "phone_number": null, "timezone": "Asia/Ho_Chi_Minh"}, {"id": "6540081", "gmt": "-8", "airport_id": "7307", "iata_code": "SQL", "city_iata_code": "SQL", "icao_code": "KSQL", "country_iso2": "US", "geoname_id": "5391761", "latitude": "37.483334", "longitude": "-122.25", "airport_name": "San Carlos", "country_name": "United States", "phone_number": null, "timezone": "America/Los_Angeles"}, {"id": "6540082", "gmt": "-3", "airport_id": "7308", "iata_code": "SQM", "city_iata_code": "SQM", "icao_code": "SWUA", "country_iso2": "BR", "geoname_id": "7731505", "latitude": "-13.316667", "longitude": "-50.216667", "airport_name": "S\u00e3o Miguel de Aragao", "country_name": "Brazil", "phone_number": null, "timezone": "America/Sao_Paulo"}, {"id": "6540083", "gmt": "9", "airport_id": "7309", "iata_code": "SQN", "city_iata_code": "SQN", "icao_code": "WAPN", "country_iso2": "ID", "geoname_id": "6301202", "latitude": "-2.2", "longitude": "125.916664", "airport_name": "Sanana", "country_name": "Indonesia", "phone_number": null, "timezone": "Asia/Jayapura"}, {"id": "6540084", "gmt": "1", "airport_id": "7310", "iata_code": "SQO", "city_iata_code": "SQO", "icao_code": "ESUD", "country_iso2": "SE", "geoname_id": "6296812", "latitude": "64.96222", "longitude": "17.8", "airport_name": "Gunnarn", "country_name": "Sweden", "phone_number": null, "timezone": "Europe/Stockholm"}, {"id": "6540085", "gmt": "2", "airport_id": "7311", "iata_code": "SQQ", "city_iata_code": "SQQ", "icao_code": "EYSA", "country_iso2": "LT", "geoname_id": "594742", "latitude": "55.933334", "longitude": "23.316668", "airport_name": "Siauliai International", "country_name": "Lithuania", "phone_number": null, "timezone": "Europe/Vilnius"}, {"id": "6540086", "gmt": "8", "airport_id": "7312", "iata_code": "SQR", "city_iata_code": "SQR", "icao_code": "WAWS", "country_iso2": "ID", "geoname_id": "7731506", "latitude": "-3.166667", "longitude": "122.666664", "airport_name": "Inco Soroako Waws", "country_name": "Indonesia", "phone_number": null, "timezone": "Asia/Makassar"}, {"id": "6540089", "gmt": "-5", "airport_id": "7315", "iata_code": "SQU", "city_iata_code": "SQU", "icao_code": "SPOA", "country_iso2": "PE", "geoname_id": "7731507", "latitude": "-6.95", "longitude": "-76.75", "airport_name": "Saposoa", "country_name": "Peru", "phone_number": null, "timezone": "America/Lima"}, {"id": "6540091", "gmt": "1", "airport_id": "7317", "iata_code": "SQW", "city_iata_code": "SQW", "icao_code": "EKSV", "country_iso2": "DK", "geoname_id": "6296713", "latitude": "56.566666", "longitude": "9.033333", "airport_name": "Skive Airport", "country_name": "Denmark", "phone_number": null, "timezone": "Europe/Copenhagen"}, {"id": "6540092", "gmt": "-3", "airport_id": "7318", "iata_code": "SQX", "city_iata_code": "SQX", "icao_code": "SSOE", "country_iso2": "BR", "geoname_id": "7731508", "latitude": "-26.780556", "longitude": "-53.502777", "airport_name": "Sao Miguel do Oeste", "country_name": "Brazil", "phone_number": null, "timezone": "America/Sao_Paulo"}, {"id": "6540093", "gmt": "-3", "airport_id": "7319", "iata_code": "SQY", "city_iata_code": "SQY", "icao_code": "SSRU", "country_iso2": "BR", "geoname_id": "7731509", "latitude": "-31.382778", "longitude": "-52.032223", "airport_name": "Sao Lourenco Do Sul", "country_name": "Brazil", "phone_number": null, "timezone": "America/Sao_Paulo"}, {"id": "6540094", "gmt": null, "airport_id": "7320", "iata_code": "SQZ", "city_iata_code": "SQZ", "icao_code": "EGXP", "country_iso2": "GB", "geoname_id": "6296671", "latitude": "53.3", "longitude": "-0.583333", "airport_name": "RAF Station", "country_name": "United Kingdom", "phone_number": null, "timezone": "Europe/London"}, {"id": "6540095", "gmt": "-3", "airport_id": "7321", "iata_code": "SRA", "city_iata_code": "SRA", "icao_code": "SSZR", "country_iso2": "BR", "geoname_id": "7668478", "latitude": "-27.866667", "longitude": "-54.483334", "airport_name": "Santa Rosa", "country_name": "Brazil", "phone_number": null, "timezone": "America/Sao_Paulo"}, {"id": "6540096", "gmt": "-4", "airport_id": "7322", "iata_code": "SRB", "city_iata_code": "SRB", "icao_code": "SLSR", "country_iso2": "BO", "geoname_id": "7731510", "latitude": "-10.6", "longitude": "-67.333336", "airport_name": "Santa Rosa", "country_name": "Bolivia", "phone_number": null, "timezone": "America/La_Paz"}, {"id": "6540097", "gmt": "-6", "airport_id": "7323", "iata_code": "SRC", "city_iata_code": "SRC", "icao_code": "KSRC", "country_iso2": "US", "geoname_id": "4130438", "latitude": "35.25", "longitude": "-91.73333", "airport_name": "Searcy", "country_name": "United States", "phone_number": null, "timezone": "America/Chicago"}, {"id": "6540098", "gmt": "-4", "airport_id": "7324", "iata_code": "SRD", "city_iata_code": "SRD", "icao_code": "SLRA", "country_iso2": "BO", "geoname_id": "7731511", "latitude": "-13.283333", "longitude": "-64.71667", "airport_name": "San Ramon", "country_name": "Bolivia", "phone_number": null, "timezone": "America/La_Paz"}, {"id": "6540099", "gmt": "-4", "airport_id": "7325", "iata_code": "SRE", "city_iata_code": "SRE", "icao_code": "SLSU", "country_iso2": "BO", "geoname_id": "6300789", "latitude": "-19.007778", "longitude": "-65.30167", "airport_name": "Juana Azurduy de Padilla", "country_name": "Bolivia", "phone_number": null, "timezone": "America/La_Paz"}, {"id": "6540100", "gmt": "7", "airport_id": "7326", "iata_code": "SRG", "city_iata_code": "SRG", "icao_code": "WIIS", "country_iso2": "ID", "geoname_id": "6301228", "latitude": "-6.979155", "longitude": "110.37855", "airport_name": "Achmad Yani", "country_name": "Indonesia", "phone_number": null, "timezone": "Asia/Jakarta"}, {"id": "6540101", "gmt": "1", "airport_id": "7327", "iata_code": "SRH", "city_iata_code": "SRH", "icao_code": "FTTA", "country_iso2": "TD", "geoname_id": "6297095", "latitude": "9.083333", "longitude": "18.383333", "airport_name": "Sarh", "country_name": null, "phone_number": null, "timezone": "Africa/Ndjamena"}, {"id": "6540103", "gmt": "-4", "airport_id": "7329", "iata_code": "SRJ", "city_iata_code": "SRJ", "icao_code": "SLSB", "country_iso2": "BO", "geoname_id": "6300786", "latitude": "-14.816667", "longitude": "-66.833336", "airport_name": "Capitan G Q Guardia", "country_name": "Bolivia", "phone_number": null, "timezone": "America/La_Paz"}, {"id": "6540106", "gmt": "10", "airport_id": "7332", "iata_code": "SRN", "city_iata_code": "SRN", "icao_code": "YSRN", "country_iso2": "AU", "geoname_id": "7668772", "latitude": "-42.15", "longitude": "145.31667", "airport_name": "Strahan", "country_name": "Australia", "phone_number": null, "timezone": "Australia/Hobart"}, {"id": "6540108", "gmt": "1", "airport_id": "7334", "iata_code": "SRP", "city_iata_code": "SRP", "icao_code": "ENSO", "country_iso2": "NO", "geoname_id": "6296772", "latitude": "59.833332", "longitude": "5.416667", "airport_name": "Stord Airport", "country_name": "Norway", "phone_number": null, "timezone": "Europe/Oslo"}, {"id": "6540109", "gmt": "-5", "airport_id": "7335", "iata_code": "SRQ", "city_iata_code": "SRQ", "icao_code": "KSRQ", "country_iso2": "US", "geoname_id": "6299118", "latitude": "27.38748", "longitude": "-82.55328", "airport_name": "Sarasota/Bradenton International", "country_name": "United States", "phone_number": null, "timezone": "America/New_York"}, {"id": "6540110", "gmt": "10", "airport_id": "7336", "iata_code": "SRR", "city_iata_code": "SRR", "icao_code": "KSRR", "country_iso2": "AU", "geoname_id": "5491390", "latitude": "-27.5190395", "longitude": "153.4276083", "airport_name": "Dunwich", "country_name": "Australia", "phone_number": null, "timezone": "Australia/Brisbane"}, {"id": "6540112", "gmt": "3", "airport_id": "7338", "iata_code": "SRT", "city_iata_code": "SRT", "icao_code": "HUSO", "country_iso2": "UG", "geoname_id": "6297384", "latitude": "1.7", "longitude": "33.61667", "airport_name": "Soroti", "country_name": "Uganda", "phone_number": null, "timezone": "Africa/Kampala"}, {"id": "6540114", "gmt": "-5", "airport_id": "7340", "iata_code": "SRW", "city_iata_code": "SRW", "icao_code": "KRUQ", "country_iso2": "US", "geoname_id": "4489985", "latitude": "35.666668", "longitude": "-80.48333", "airport_name": "Rowan County", "country_name": "United States", "phone_number": null, "timezone": "America/New_York"}, {"id": "6540115", "gmt": "2", "airport_id": "7341", "iata_code": "SRX", "city_iata_code": "SRX", "icao_code": "HLGD", "country_iso2": "LY", "geoname_id": "7730095", "latitude": "31.060917", "longitude": "16.612036", "airport_name": "Sert", "country_name": "Libya", "phone_number": null, "timezone": "Africa/Tripoli"}, {"id": "6540116", "gmt": "3.30", "airport_id": "7342", "iata_code": "SRY", "city_iata_code": "SRY", "icao_code": "OINS", "country_iso2": "IR", "geoname_id": "7668391", "latitude": "36.635727", "longitude": "53.197277", "airport_name": "Dashte Naz", "country_name": "Iran", "phone_number": null, "timezone": "Asia/Tehran"}, {"id": "6540117", "gmt": "-4", "airport_id": "7343", "iata_code": "SRZ", "city_iata_code": "SRZ", "icao_code": "SLET", "country_iso2": "BO", "geoname_id": "6300771", "latitude": "-17.804167", "longitude": "-63.1725", "airport_name": "El Trompillo", "country_name": "Bolivia", "phone_number": null, "timezone": "America/La_Paz"}, {"id": "6540118", "gmt": "-3", "airport_id": "7344", "iata_code": "SSA", "city_iata_code": "SSA", "icao_code": "SBSV", "country_iso2": "BR", "geoname_id": "6300674", "latitude": "-12.913988", "longitude": "-38.335197", "airport_name": "Luis Eduardo Magalhaes", "country_name": "Brazil", "phone_number": null, "timezone": "America/Bahia"}, {"id": "6540119", "gmt": "-4", "airport_id": "7345", "iata_code": "SSB", "city_iata_code": "STX", "icao_code": "VI32", "country_iso2": "VI", "geoname_id": null, "latitude": "17.75", "longitude": "-64.75", "airport_name": "SPB", "country_name": "U.S. Virgin Islands", "phone_number": null, "timezone": "America/St_Thomas"}, {"id": "6540122", "gmt": "5.30", "airport_id": "7348", "iata_code": "SSE", "city_iata_code": "SSE", "icao_code": "VASL", "country_iso2": "IN", "geoname_id": "6301044", "latitude": "17.633333", "longitude": "75.933334", "airport_name": "Sholapur", "country_name": "India", "phone_number": null, "timezone": "Asia/Kolkata"}, {"id": "6540123", "gmt": "-6", "airport_id": "7349", "iata_code": "SSF", "city_iata_code": "SAT", "icao_code": "KSSF", "country_iso2": "US", "geoname_id": "4734513", "latitude": "29.416668", "longitude": "-98.5", "airport_name": "Stinson Municipalcipal", "country_name": "United States", "phone_number": null, "timezone": "America/Chicago"}, {"id": "6540124", "gmt": "1", "airport_id": "7350", "iata_code": "SSG", "city_iata_code": "SSG", "icao_code": "FGSL", "country_iso2": "GQ", "geoname_id": "6296982", "latitude": "3.757791", "longitude": "8.716096", "airport_name": "Malbo", "country_name": "Equatorial Guinea", "phone_number": null, "timezone": "Africa/Malabo"}, {"id": "6540125", "gmt": "2", "airport_id": "7351", "iata_code": "SSH", "city_iata_code": "SSH", "icao_code": "HESH", "country_iso2": "EG", "geoname_id": "6297298", "latitude": "27.979357", "longitude": "34.385254", "airport_name": "Sharm el-Sheikh International Airport", "country_name": "Egypt", "phone_number": null, "timezone": "Africa/Cairo"}, {"id": "6540126", "gmt": "-5", "airport_id": "7352", "iata_code": "SSI", "city_iata_code": "SSI", "icao_code": "KSSI", "country_iso2": "US", "geoname_id": "4207572", "latitude": "31.165916", "longitude": "-81.46347", "airport_name": "Malcolm Mckinnon", "country_name": "United States", "phone_number": null, "timezone": "America/New_York"}, {"id": "6540127", "gmt": "1", "airport_id": "7353", "iata_code": "SSJ", "city_iata_code": "SSJ", "icao_code": "ENST", "country_iso2": "NO", "geoname_id": "6296775", "latitude": "65.959946", "longitude": "12.476518", "airport_name": "Stokka", "country_name": "Norway", "phone_number": null, "timezone": "Europe/Oslo"}, {"id": "6540130", "gmt": "9", "airport_id": "7356", "iata_code": "SSN", "city_iata_code": "SEL", "icao_code": "RKSM", "country_iso2": "KR", "geoname_id": "6300435", "latitude": "37.45", "longitude": "127.11667", "airport_name": "Seoul AB", "country_name": "South Korea", "phone_number": null, "timezone": "Asia/Seoul"}, {"id": "6540131", "gmt": "-3", "airport_id": "7357", "iata_code": "SSO", "city_iata_code": "SSO", "icao_code": "SNLO", "country_iso2": "BR", "geoname_id": "7731514", "latitude": "-22.116667", "longitude": "-45.05", "airport_name": "Sao Lourenco", "country_name": "Brazil", "phone_number": null, "timezone": "America/Sao_Paulo"}, {"id": "6540134", "gmt": "11", "airport_id": "7360", "iata_code": "SSR", "city_iata_code": "SSR", "icao_code": "NVSH", "country_iso2": "VU", "geoname_id": "7730710", "latitude": "-15.5", "longitude": "168.3", "airport_name": "Sara", "country_name": "Vanuatu", "phone_number": null, "timezone": "Pacific/Efate"}, {"id": "6540139", "gmt": "1", "airport_id": "7365", "iata_code": "SSY", "city_iata_code": "SSY", "icao_code": "FNBC", "country_iso2": "AO", "geoname_id": "7839143", "latitude": "-6.273889", "longitude": "14.244167", "airport_name": "M'banza Congo", "country_name": "Angola", "phone_number": null, "timezone": "Africa/Luanda"}, {"id": "6540140", "gmt": "-3", "airport_id": "7366", "iata_code": "SSZ", "city_iata_code": "SSZ", "icao_code": "SBST", "country_iso2": "BR", "geoname_id": "6300673", "latitude": "-23.933332", "longitude": "-46.36667", "airport_name": "Santos", "country_name": "Brazil", "phone_number": null, "timezone": "America/Sao_Paulo"}, {"id": "6540141", "gmt": "1", "airport_id": "7367", "iata_code": "STA", "city_iata_code": "STA", "icao_code": "EKVJ", "country_iso2": "DK", "geoname_id": "6296717", "latitude": "55.990276", "longitude": "8.355", "airport_name": "Stauning Vestjyllands Airport", "country_name": "Denmark", "phone_number": null, "timezone": "Europe/Copenhagen"}, {"id": "6540142", "gmt": "-4", "airport_id": "7368", "iata_code": "STB", "city_iata_code": "STB", "icao_code": "SVSZ", "country_iso2": "VE", "geoname_id": "6300874", "latitude": "9.033333", "longitude": "-71.95", "airport_name": "L Delicias", "country_name": "Venezuela", "phone_number": null, "timezone": "America/Caracas"}, {"id": "6540143", "gmt": "-6", "airport_id": "7369", "iata_code": "STC", "city_iata_code": "STC", "icao_code": "KSTC", "country_iso2": "US", "geoname_id": "6299120", "latitude": "45.55", "longitude": "-94.166664", "airport_name": "Saint Cloud Regional", "country_name": "United States", "phone_number": null, "timezone": "America/Chicago"}, {"id": "6540144", "gmt": "-4", "airport_id": "7370", "iata_code": "STD", "city_iata_code": "STD", "icao_code": "SVSO", "country_iso2": "VE", "geoname_id": "6300870", "latitude": "7.583333", "longitude": "-72.066666", "airport_name": "Mayo Guerrero", "country_name": "Venezuela", "phone_number": null, "timezone": "America/Caracas"}, {"id": "6540145", "gmt": "-6", "airport_id": "7371", "iata_code": "STE", "city_iata_code": "STE", "icao_code": "KSTE", "country_iso2": "US", "geoname_id": "5274648", "latitude": "44.545277", "longitude": "-89.53083", "airport_name": "Stevens Point", "country_name": "United States", "phone_number": null, "timezone": "America/Chicago"}, {"id": "6540147", "gmt": "-9", "airport_id": "7373", "iata_code": "STG", "city_iata_code": "STG", "icao_code": "PAPB", "country_iso2": "US", "geoname_id": "5869873", "latitude": "56.6", "longitude": "-169.5525", "airport_name": "St George Island", "country_name": "United States", "phone_number": null, "timezone": "America/Anchorage"}, {"id": "6540148", "gmt": "10", "airport_id": "7374", "iata_code": "STH", "city_iata_code": "STH", "icao_code": "YSMR", "country_iso2": "AU", "geoname_id": "7731515", "latitude": "-17.833332", "longitude": "142.58333", "airport_name": "Strathmore", "country_name": "Australia", "phone_number": null, "timezone": "Australia/Brisbane"}, {"id": "6540149", "gmt": "-4", "airport_id": "7375", "iata_code": "STI", "city_iata_code": "STI", "icao_code": "MDST", "country_iso2": "DO", "geoname_id": "3509625", "latitude": "19.401829", "longitude": "-70.60208", "airport_name": "Cibao International Airport", "country_name": "Dominican Republic", "phone_number": null, "timezone": "America/Santo_Domingo"}, {"id": "6540150", "gmt": "-6", "airport_id": "7376", "iata_code": "STJ", "city_iata_code": "STJ", "icao_code": "KSTJ", "country_iso2": "US", "geoname_id": "4406399", "latitude": "39.960556", "longitude": "-94.925", "airport_name": "Rosecrans Memorial", "country_name": "United States", "phone_number": null, "timezone": "America/Chicago"}, {"id": "6540152", "gmt": "-6", "airport_id": "7378", "iata_code": "STL", "city_iata_code": "STL", "icao_code": "KSTL", "country_iso2": "US", "geoname_id": "4394516", "latitude": "38.74228", "longitude": "-90.36587", "airport_name": "Lambert-St. Louis International", "country_name": "United States", "phone_number": "314-426-8000", "timezone": "America/Chicago"}, {"id": "6540153", "gmt": "-3", "airport_id": "7379", "iata_code": "STM", "city_iata_code": "STM", "icao_code": "SBSN", "country_iso2": "BR", "geoname_id": "6300672", "latitude": "-2.424886", "longitude": "-54.78639", "airport_name": "Eduardo Gomes", "country_name": "Brazil", "phone_number": null, "timezone": "America/Santarem"}, {"id": "6540154", "gmt": null, "airport_id": "7380", "iata_code": "STN", "city_iata_code": "LON", "icao_code": "EGSS", "country_iso2": "GB", "geoname_id": "6296645", "latitude": "51.889267", "longitude": "0.262703", "airport_name": "Stansted", "country_name": "United Kingdom", "phone_number": null, "timezone": "Europe/London"}, {"id": "6540155", "gmt": "-6", "airport_id": "7381", "iata_code": "STP", "city_iata_code": "MSP", "icao_code": "KSTP", "country_iso2": "US", "geoname_id": null, "latitude": "44.933334", "longitude": "-93.066666", "airport_name": "Downtown", "country_name": "United States", "phone_number": null, "timezone": "America/Chicago"}, {"id": "6540156", "gmt": "-5", "airport_id": "7382", "iata_code": "STQ", "city_iata_code": "STQ", "icao_code": "KOYM", "country_iso2": "US", "geoname_id": "5210198", "latitude": "41.433334", "longitude": "-78.566666", "airport_name": "St Marys", "country_name": "United States", "phone_number": null, "timezone": "America/New_York"}, {"id": "6540157", "gmt": "1", "airport_id": "7383", "iata_code": "STR", "city_iata_code": "STR", "icao_code": "EDDS", "country_iso2": "DE", "geoname_id": "3206322", "latitude": "48.69073", "longitude": "9.193624", "airport_name": "Stuttgart Echterdingen", "country_name": "Germany", "phone_number": null, "timezone": "Europe/Berlin"}, {"id": "6540158", "gmt": "-8", "airport_id": "7384", "iata_code": "STS", "city_iata_code": "STS", "icao_code": "KSTS", "country_iso2": "US", "geoname_id": "5397102", "latitude": "38.50889", "longitude": "-122.81167", "airport_name": "Sonoma County", "country_name": "United States", "phone_number": null, "timezone": "America/Los_Angeles"}, {"id": "6540159", "gmt": "-4", "airport_id": "7385", "iata_code": "STT", "city_iata_code": "STT", "icao_code": "TIST", "country_iso2": "VI", "geoname_id": "4795586", "latitude": "18.3375", "longitude": "-64.969444", "airport_name": "Cyril E King Airport", "country_name": "U.S. Virgin Islands", "phone_number": null, "timezone": "America/St_Thomas"}, {"id": "6540161", "gmt": "5.30", "airport_id": "7387", "iata_code": "STV", "city_iata_code": "STV", "icao_code": "VASU", "country_iso2": "IN", "geoname_id": "7668581", "latitude": "21.117659", "longitude": "72.745255", "airport_name": "Surat", "country_name": "India", "phone_number": null, "timezone": "Asia/Kolkata"}]}