{"pagination": {"offset": 4800, "limit": 100, "count": 100, "total": 6685}, "data": [{"id": "6539755", "gmt": "11", "airport_id": "6981", "iata_code": "SCZ", "city_iata_code": "SCZ", "icao_code": "AGGL", "country_iso2": "SB", "geoname_id": "6295680", "latitude": "-11.616667", "longitude": "166.85", "airport_name": "Santa Cruz Island", "country_name": "Solomon Islands", "phone_number": null, "timezone": "Pacific/Guadalcanal"}, {"id": "6539756", "gmt": "2", "airport_id": "6982", "iata_code": "SDB", "city_iata_code": "SDB", "icao_code": "FASD", "country_iso2": "ZA", "geoname_id": "7730075", "latitude": "-33.066666", "longitude": "18", "airport_name": "Langebaanweg", "country_name": "South Africa", "phone_number": null, "timezone": "Africa/Johannesburg"}, {"id": "6539758", "gmt": "1", "airport_id": "6984", "iata_code": "SDD", "city_iata_code": "SDD", "icao_code": "FNBU", "country_iso2": "AO", "geoname_id": "7668257", "latitude": "-14.924444", "longitude": "13.576667", "airport_name": "Lubango", "country_name": "Angola", "phone_number": null, "timezone": "Africa/Luanda"}, {"id": "6539759", "gmt": "-3", "airport_id": "6985", "iata_code": "SDE", "city_iata_code": "SDE", "icao_code": "SANE", "country_iso2": "AR", "geoname_id": "6300533", "latitude": "-27.765278", "longitude": "-64.32222", "airport_name": "Santiago Del Estero", "country_name": "Argentina", "phone_number": null, "timezone": "America/Argentina/Cordoba"}, {"id": "6539760", "gmt": "-5", "airport_id": "6986", "iata_code": "SDF", "city_iata_code": "SDF", "icao_code": "KSDF", "country_iso2": "US", "geoname_id": "6301715", "latitude": "38.186375", "longitude": "-85.74179", "airport_name": "Louisville International (Standiford Field)", "country_name": "United States", "phone_number": "502-367-4636", "timezone": "America/Kentucky/Louisville"}, {"id": "6539761", "gmt": "3.30", "airport_id": "6987", "iata_code": "SDG", "city_iata_code": "SDG", "icao_code": "OICS", "country_iso2": "IR", "geoname_id": "6300050", "latitude": "35.251472", "longitude": "47.013767", "airport_name": "Sanandaj", "country_name": "Iran", "phone_number": null, "timezone": "Asia/Tehran"}, {"id": "6539763", "gmt": "9", "airport_id": "6989", "iata_code": "SDJ", "city_iata_code": "SDJ", "icao_code": "RJSS", "country_iso2": "JP", "geoname_id": "6300399", "latitude": "38.135555", "longitude": "140.92389", "airport_name": "Sendai", "country_name": "Japan", "phone_number": null, "timezone": "Asia/Tokyo"}, {"id": "6539764", "gmt": "8", "airport_id": "6990", "iata_code": "SDK", "city_iata_code": "SDK", "icao_code": "WBKS", "country_iso2": "MY", "geoname_id": "6301213", "latitude": "5.896877", "longitude": "118.06184", "airport_name": "Sandakan", "country_name": "Malaysia", "phone_number": null, "timezone": "Asia/Kuching"}, {"id": "6539765", "gmt": "1", "airport_id": "6991", "iata_code": "SDL", "city_iata_code": "SDL", "icao_code": "ESNN", "country_iso2": "SE", "geoname_id": "6296804", "latitude": "62.52165", "longitude": "17.438147", "airport_name": "Sundsvall/harnosand", "country_name": "Sweden", "phone_number": null, "timezone": "Europe/Stockholm"}, {"id": "6539766", "gmt": "-8", "airport_id": "6992", "iata_code": "SDM", "city_iata_code": "SAN", "icao_code": "KSDM", "country_iso2": "US", "geoname_id": "5331042", "latitude": "32.572224", "longitude": "-116.98", "airport_name": "Brown Field Municipalcipal", "country_name": "United States", "phone_number": null, "timezone": "America/Los_Angeles"}, {"id": "6539767", "gmt": "1", "airport_id": "6993", "iata_code": "SDN", "city_iata_code": "SDN", "icao_code": "ENSD", "country_iso2": "NO", "geoname_id": "6296767", "latitude": "61.766666", "longitude": "6.216667", "airport_name": "Sandane", "country_name": "Norway", "phone_number": null, "timezone": "Europe/Oslo"}, {"id": "6539769", "gmt": "-9", "airport_id": "6995", "iata_code": "SDP", "city_iata_code": "SDP", "icao_code": "PASD", "country_iso2": "US", "geoname_id": "5873350", "latitude": "55.316666", "longitude": "-160.51389", "airport_name": "Sand Point Municipal", "country_name": "United States", "phone_number": null, "timezone": "America/Anchorage"}, {"id": "6539770", "gmt": "-4", "airport_id": "6996", "iata_code": "SDQ", "city_iata_code": "SDQ", "icao_code": "MDSD", "country_iso2": "DO", "geoname_id": "3500854", "latitude": "18.430124", "longitude": "-69.67674", "airport_name": "Aeropuerto de las Am\u00e9ricas", "country_name": "Dominican Republic", "phone_number": "809-947-2225", "timezone": "America/Santo_Domingo"}, {"id": "6539771", "gmt": "1", "airport_id": "6997", "iata_code": "SDR", "city_iata_code": "SDR", "icao_code": "LEXJ", "country_iso2": "ES", "geoname_id": "3114305", "latitude": "43.423084", "longitude": "-3.824453", "airport_name": "Santander", "country_name": "Spain", "phone_number": null, "timezone": "Europe/Madrid"}, {"id": "6539772", "gmt": "9", "airport_id": "6998", "iata_code": "SDS", "city_iata_code": "SDS", "icao_code": "RJSD", "country_iso2": "JP", "geoname_id": "6300390", "latitude": "38", "longitude": "138.41667", "airport_name": "Sado Shima", "country_name": "Japan", "phone_number": null, "timezone": "Asia/Tokyo"}, {"id": "6539773", "gmt": "5", "airport_id": "6999", "iata_code": "SDT", "city_iata_code": "SDT", "icao_code": "OPSS", "country_iso2": "PK", "geoname_id": "7668407", "latitude": "34.75", "longitude": "72.35", "airport_name": "Saidu Sharif", "country_name": "Pakistan", "phone_number": null, "timezone": "Asia/Karachi"}, {"id": "6539774", "gmt": "-3", "airport_id": "7000", "iata_code": "SDU", "city_iata_code": "RIO", "icao_code": "SBRJ", "country_iso2": "BR", "geoname_id": "6300664", "latitude": "-22.911541", "longitude": "-43.167095", "airport_name": "Santos Dumont", "country_name": "Brazil", "phone_number": null, "timezone": "America/Sao_Paulo"}, {"id": "6539775", "gmt": "2", "airport_id": "7001", "iata_code": "SDV", "city_iata_code": "TLV", "icao_code": "LLSD", "country_iso2": "IL", "geoname_id": "6301787", "latitude": "32.104885", "longitude": "34.787857", "airport_name": "Sde Dov", "country_name": "Israel", "phone_number": null, "timezone": "Asia/Jerusalem"}, {"id": "6539776", "gmt": "-7", "airport_id": "7002", "iata_code": "SDX", "city_iata_code": "SDX", "icao_code": "KSEZ", "country_iso2": "US", "geoname_id": "5313668", "latitude": "34.86667", "longitude": "-111.76667", "airport_name": "Sedona", "country_name": "United States", "phone_number": null, "timezone": "America/Phoenix"}, {"id": "6539777", "gmt": "-7", "airport_id": "7003", "iata_code": "SDY", "city_iata_code": "SDY", "icao_code": "KSDY", "country_iso2": "US", "geoname_id": "5677750", "latitude": "47.706944", "longitude": "-104.19194", "airport_name": "Richland Municipalcipal", "country_name": "United States", "phone_number": null, "timezone": "America/Denver"}, {"id": "6539778", "gmt": "-8", "airport_id": "7004", "iata_code": "SEA", "city_iata_code": "SEA", "icao_code": "KSEA", "country_iso2": "US", "geoname_id": "5809876", "latitude": "47.44384", "longitude": "-122.301735", "airport_name": "Seattle-Tacoma International", "country_name": "United States", "phone_number": "206-787-5388", "timezone": "America/Los_Angeles"}, {"id": "6539779", "gmt": "2", "airport_id": "7005", "iata_code": "SEB", "city_iata_code": "SEB", "icao_code": "HLLS", "country_iso2": "LY", "geoname_id": "6297331", "latitude": "27.016666", "longitude": "14.4625", "airport_name": "Sebha", "country_name": "Libya", "phone_number": null, "timezone": "Africa/Tripoli"}, {"id": "6539781", "gmt": "-8", "airport_id": "7007", "iata_code": "SEE", "city_iata_code": "SAN", "icao_code": "KSEE", "country_iso2": "US", "geoname_id": "5352179", "latitude": "32.82611", "longitude": "-116.97222", "airport_name": "Gillespie Field", "country_name": "United States", "phone_number": null, "timezone": "America/Los_Angeles"}, {"id": "6539782", "gmt": "-5", "airport_id": "7008", "iata_code": "SEF", "city_iata_code": "SEF", "icao_code": "KSEF", "country_iso2": "US", "geoname_id": "4172388", "latitude": "27.5", "longitude": "-81.416664", "airport_name": "Sebring Regional Airport", "country_name": "United States", "phone_number": null, "timezone": "America/New_York"}, {"id": "6539783", "gmt": "-5", "airport_id": "7009", "iata_code": "SEG", "city_iata_code": "SEG", "icao_code": "KSEG", "country_iso2": "US", "geoname_id": "5211411", "latitude": "40.85", "longitude": "-76.85", "airport_name": "Penn Valley", "country_name": "United States", "phone_number": null, "timezone": "America/New_York"}, {"id": "6539784", "gmt": "9", "airport_id": "7010", "iata_code": "SEH", "city_iata_code": "SEH", "icao_code": "WAJS", "country_iso2": "ID", "geoname_id": "7731485", "latitude": "-3.433333", "longitude": "140.81667", "airport_name": "Senggeh", "country_name": "Indonesia", "phone_number": null, "timezone": "Asia/Jayapura"}, {"id": "6539786", "gmt": "-6", "airport_id": "7012", "iata_code": "SEM", "city_iata_code": "SES", "icao_code": "KSEM", "country_iso2": "US", "geoname_id": "4057424", "latitude": "32.226112", "longitude": "-87.08722", "airport_name": "Craig AFB", "country_name": "United States", "phone_number": null, "timezone": "America/Chicago"}, {"id": "6539787", "gmt": null, "airport_id": "7013", "iata_code": "SEN", "city_iata_code": "LON", "icao_code": "EGMC", "country_iso2": "GB", "geoname_id": "6296601", "latitude": "51.572777", "longitude": "0.701389", "airport_name": "Southend", "country_name": "United Kingdom", "phone_number": null, "timezone": "Europe/London"}, {"id": "6539788", "gmt": null, "airport_id": "7014", "iata_code": "SEO", "city_iata_code": "SEO", "icao_code": "DISG", "country_iso2": "CI", "geoname_id": "7668187", "latitude": "7.966667", "longitude": "-6.666667", "airport_name": "Seguela", "country_name": null, "phone_number": null, "timezone": "Africa/Abidjan"}, {"id": "6539790", "gmt": "7", "airport_id": "7016", "iata_code": "SEQ", "city_iata_code": "SEQ", "icao_code": "WIBS", "country_iso2": "ID", "geoname_id": "7731486", "latitude": "-0.8", "longitude": "114.066666", "airport_name": "Sungai Pakning", "country_name": "Indonesia", "phone_number": null, "timezone": "Asia/Jakarta"}, {"id": "6539791", "gmt": "-5", "airport_id": "7017", "iata_code": "SER", "city_iata_code": "SER", "icao_code": "KSER", "country_iso2": "US", "geoname_id": "4264617", "latitude": "38.966667", "longitude": "-85.88333", "airport_name": "Freeman Municipalcipal", "country_name": "United States", "phone_number": null, "timezone": "America/Indiana/Indianapolis"}, {"id": "6539794", "gmt": "3", "airport_id": "7020", "iata_code": "SEU", "city_iata_code": "SEU", "icao_code": "HTSN", "country_iso2": "TZ", "geoname_id": "7730624", "latitude": "-2.383333", "longitude": "34.816666", "airport_name": "Seronera", "country_name": "Tanzania", "phone_number": null, "timezone": "Africa/Dar_es_Salaam"}, {"id": "6539795", "gmt": "2", "airport_id": "7021", "iata_code": "SEV", "city_iata_code": "SEV", "icao_code": "UKCS", "country_iso2": "UA", "geoname_id": "7731487", "latitude": "48.9", "longitude": "38.55", "airport_name": "Severodoneck", "country_name": "Ukraine", "phone_number": null, "timezone": "Europe/Kiev"}, {"id": "6539796", "gmt": "2", "airport_id": "7022", "iata_code": "SEW", "city_iata_code": "SEW", "icao_code": "HE24", "country_iso2": "EG", "geoname_id": "7730609", "latitude": "29.183332", "longitude": "25.516666", "airport_name": "Siwa", "country_name": "Egypt", "phone_number": null, "timezone": "Africa/Cairo"}, {"id": "6539797", "gmt": null, "airport_id": "7023", "iata_code": "SEY", "city_iata_code": "SEY", "icao_code": "GQNS", "country_iso2": "MR", "geoname_id": "7668287", "latitude": "15.182222", "longitude": "-12.206111", "airport_name": "Selibaby", "country_name": "Mauritania", "phone_number": null, "timezone": "Africa/Nouakchott"}, {"id": "6539798", "gmt": "4", "airport_id": "7024", "iata_code": "SEZ", "city_iata_code": "SEZ", "icao_code": "FSIA", "country_iso2": "SC", "geoname_id": "6297094", "latitude": "-4.671275", "longitude": "55.51128", "airport_name": "Seychelles International Airport", "country_name": "Seychelles", "phone_number": null, "timezone": "Indian/Mahe"}, {"id": "6539799", "gmt": "1", "airport_id": "7025", "iata_code": "SFA", "city_iata_code": "SFA", "icao_code": "DTTX", "country_iso2": "TN", "geoname_id": "6296475", "latitude": "34.716667", "longitude": "10.683333", "airport_name": "Sfax Thyna", "country_name": "Tunisia", "phone_number": null, "timezone": "Africa/Tunis"}, {"id": "6539800", "gmt": "-5", "airport_id": "7026", "iata_code": "SFB", "city_iata_code": "ORL", "icao_code": "KSFB", "country_iso2": "US", "geoname_id": "6299061", "latitude": "28.775118", "longitude": "-81.2432", "airport_name": "Orlando Sanford International", "country_name": "United States", "phone_number": null, "timezone": "America/New_York"}, {"id": "6539802", "gmt": "-4", "airport_id": "7028", "iata_code": "SFD", "city_iata_code": "SFD", "icao_code": "SVSR", "country_iso2": "VE", "geoname_id": "6300872", "latitude": "7.885278", "longitude": "-67.43916", "airport_name": "Las Flecheras", "country_name": "Venezuela", "phone_number": null, "timezone": "America/Caracas"}, {"id": "6539804", "gmt": "-8", "airport_id": "7030", "iata_code": "SFF", "city_iata_code": "GEG", "icao_code": "KSFF", "country_iso2": "US", "geoname_id": "5794246", "latitude": "47.666668", "longitude": "-117.4", "airport_name": "Felts Field", "country_name": "United States", "phone_number": null, "timezone": "America/Los_Angeles"}, {"id": "6539805", "gmt": "-4", "airport_id": "7031", "iata_code": "SFG", "city_iata_code": "SFG", "icao_code": "TFFG", "country_iso2": "MF", "geoname_id": null, "latitude": "18.100555", "longitude": "-63.04889", "airport_name": "Esperance", "country_name": "Saint Martin", "phone_number": null, "timezone": "America/Marigot"}, {"id": "6539807", "gmt": "-3", "airport_id": "7033", "iata_code": "SFJ", "city_iata_code": "SFJ", "icao_code": "BGSF", "country_iso2": "GL", "geoname_id": "6295704", "latitude": "67.01222", "longitude": "-50.719723", "airport_name": "Kangerlussuaq", "country_name": "Greenland", "phone_number": null, "timezone": "America/Godthab"}, {"id": "6539809", "gmt": "-1", "airport_id": "7035", "iata_code": "SFL", "city_iata_code": "SFL", "icao_code": "GVSF", "country_iso2": "CV", "geoname_id": "7668292", "latitude": "14.9", "longitude": "-24.516666", "airport_name": "Sao Filipe", "country_name": "Cape Verde", "phone_number": null, "timezone": "Atlantic/Cape_Verde"}, {"id": "6539810", "gmt": "-5", "airport_id": "7036", "iata_code": "SFM", "city_iata_code": "SFM", "icao_code": "KSFM", "country_iso2": "US", "geoname_id": "4977771", "latitude": "43.433334", "longitude": "-70.76667", "airport_name": "Sanford", "country_name": "United States", "phone_number": null, "timezone": "America/New_York"}, {"id": "6539811", "gmt": "-3", "airport_id": "7037", "iata_code": "SFN", "city_iata_code": "SFN", "icao_code": "SAAV", "country_iso2": "AR", "geoname_id": "6300515", "latitude": "-31.716667", "longitude": "-60.816666", "airport_name": "Santa Fe", "country_name": "Argentina", "phone_number": null, "timezone": "America/Argentina/Cordoba"}, {"id": "6539812", "gmt": "-8", "airport_id": "7038", "iata_code": "SFO", "city_iata_code": "SFO", "icao_code": "KSFO", "country_iso2": "US", "geoname_id": "5391989", "latitude": "37.615215", "longitude": "-122.38988", "airport_name": "San Francisco International", "country_name": "United States", "phone_number": "650-821-8211", "timezone": "America/Los_Angeles"}, {"id": "6539815", "gmt": "8", "airport_id": "7041", "iata_code": "SFS", "city_iata_code": "SFS", "icao_code": "RPLB", "country_iso2": "PH", "geoname_id": "6300471", "latitude": "14.785556", "longitude": "120.26722", "airport_name": "Subic Bay International", "country_name": "Philippines", "phone_number": null, "timezone": "Asia/Manila"}, {"id": "6539816", "gmt": "1", "airport_id": "7042", "iata_code": "SFT", "city_iata_code": "SFT", "icao_code": "ESNS", "country_iso2": "SE", "geoname_id": "6296807", "latitude": "64.62251", "longitude": "21.068548", "airport_name": "Skelleftea", "country_name": "Sweden", "phone_number": null, "timezone": "Europe/Stockholm"}, {"id": "6539821", "gmt": "-5", "airport_id": "7047", "iata_code": "SFZ", "city_iata_code": "SFZ", "icao_code": "KSFZ", "country_iso2": "US", "geoname_id": "5223661", "latitude": "41.916668", "longitude": "-71.566666", "airport_name": "North Central", "country_name": "United States", "phone_number": null, "timezone": "America/New_York"}, {"id": "6539822", "gmt": "4.30", "airport_id": "7048", "iata_code": "SGA", "city_iata_code": "SGA", "icao_code": "OASN", "country_iso2": "AF", "geoname_id": "7730739", "latitude": "38.033333", "longitude": "71.71667", "airport_name": "Sheghnan", "country_name": "Afghanistan", "phone_number": null, "timezone": "Asia/Kabul"}, {"id": "6539824", "gmt": "5", "airport_id": "7050", "iata_code": "SGC", "city_iata_code": "SGC", "icao_code": "USRR", "country_iso2": "RU", "geoname_id": "6301003", "latitude": "61.339916", "longitude": "73.40953", "airport_name": "Surgut", "country_name": "Russia", "phone_number": null, "timezone": "Asia/Yekaterinburg"}, {"id": "6539825", "gmt": "1", "airport_id": "7051", "iata_code": "SGD", "city_iata_code": "SGD", "icao_code": "EKSB", "country_iso2": "DK", "geoname_id": "6296709", "latitude": "54.93028", "longitude": "9.794722", "airport_name": "Sonderborg", "country_name": "Denmark", "phone_number": null, "timezone": "Europe/Copenhagen"}, {"id": "6539827", "gmt": "-6", "airport_id": "7053", "iata_code": "SGF", "city_iata_code": "SGF", "icao_code": "KSGF", "country_iso2": "US", "geoname_id": "4409901", "latitude": "37.24237", "longitude": "-93.38226", "airport_name": "Springfield-Branson Rg", "country_name": "United States", "phone_number": null, "timezone": "America/Chicago"}, {"id": "6539830", "gmt": "5", "airport_id": "7056", "iata_code": "SGI", "city_iata_code": "SGI", "icao_code": "OPSR", "country_iso2": "PK", "geoname_id": "6300123", "latitude": "32.166668", "longitude": "72.666664", "airport_name": "Sargodha Airport", "country_name": "Pakistan", "phone_number": null, "timezone": "Asia/Karachi"}, {"id": "6539834", "gmt": "-7", "airport_id": "7060", "iata_code": "SGM", "city_iata_code": "SGM", "icao_code": "MM26", "country_iso2": "MX", "geoname_id": "7668342", "latitude": "27.45", "longitude": "-113", "airport_name": "San Ignacio", "country_name": "Mexico", "phone_number": null, "timezone": "America/Mazatlan"}, {"id": "6539835", "gmt": "7", "airport_id": "7061", "iata_code": "SGN", "city_iata_code": "SGN", "icao_code": "VVTS", "country_iso2": "VN", "geoname_id": "1904593", "latitude": "10.813045", "longitude": "106.662476", "airport_name": "Tan Son Nhat International", "country_name": null, "phone_number": "-2043", "timezone": "Asia/Ho_Chi_Minh"}, {"id": "6539836", "gmt": "10", "airport_id": "7062", "iata_code": "SGO", "city_iata_code": "SGO", "icao_code": "YSGE", "country_iso2": "AU", "geoname_id": "7668767", "latitude": "-28.053333", "longitude": "148.59389", "airport_name": "St George", "country_name": "Australia", "phone_number": null, "timezone": "Australia/Brisbane"}, {"id": "6539837", "gmt": "8", "airport_id": "7063", "iata_code": "SGP", "city_iata_code": "SGP", "icao_code": "YSHG", "country_iso2": "AU", "geoname_id": "7731489", "latitude": "-20.816668", "longitude": "120.23333", "airport_name": "Shay Gap", "country_name": "Australia", "phone_number": null, "timezone": "Australia/Perth"}, {"id": "6539838", "gmt": "8", "airport_id": "7064", "iata_code": "SGQ", "city_iata_code": "SGQ", "icao_code": "WRLA", "country_iso2": "ID", "geoname_id": "7731490", "latitude": "0.5", "longitude": "117.333336", "airport_name": "Sanggata", "country_name": "Indonesia", "phone_number": null, "timezone": "Asia/Makassar"}, {"id": "6539839", "gmt": "-6", "airport_id": "7065", "iata_code": "SGR", "city_iata_code": "SGR", "icao_code": "KSGR", "country_iso2": "US", "geoname_id": "4734825", "latitude": "29.698889", "longitude": "-95.407776", "airport_name": "Sugar Land Regional", "country_name": "United States", "phone_number": null, "timezone": "America/Chicago"}, {"id": "6539840", "gmt": "8", "airport_id": "7066", "iata_code": "SGS", "city_iata_code": "SGS", "icao_code": "RPMN", "country_iso2": "PH", "geoname_id": "7668422", "latitude": "5.233333", "longitude": "121.15", "airport_name": "Sanga Sanga", "country_name": "Philippines", "phone_number": null, "timezone": "Asia/Manila"}, {"id": "6539841", "gmt": "-6", "airport_id": "7067", "iata_code": "SGT", "city_iata_code": "SGT", "icao_code": "KSGT", "country_iso2": "US", "geoname_id": "4132634", "latitude": "34.5", "longitude": "-91.53333", "airport_name": "Stuttgart Municipalcipal", "country_name": "United States", "phone_number": null, "timezone": "America/Chicago"}, {"id": "6539842", "gmt": "-7", "airport_id": "7068", "iata_code": "SGU", "city_iata_code": "SGU", "icao_code": "KSGU", "country_iso2": "US", "geoname_id": "5546225", "latitude": "37.032627", "longitude": "-113.51017", "airport_name": "St. George Municipal", "country_name": "United States", "phone_number": null, "timezone": "America/Denver"}, {"id": "6539843", "gmt": "-3", "airport_id": "7069", "iata_code": "SGV", "city_iata_code": "SGV", "icao_code": "SAVS", "country_iso2": "AR", "geoname_id": "7730774", "latitude": "-41.566666", "longitude": "-65.35", "airport_name": "Sierra Grande", "country_name": "Argentina", "phone_number": null, "timezone": "America/Argentina/Salta"}, {"id": "6539845", "gmt": "3", "airport_id": "7071", "iata_code": "SGX", "city_iata_code": "SGX", "icao_code": "HTSO", "country_iso2": "TZ", "geoname_id": "6297368", "latitude": "-10.686667", "longitude": "35.5775", "airport_name": "Songea", "country_name": "Tanzania", "phone_number": null, "timezone": "Africa/Dar_es_Salaam"}, {"id": "6539846", "gmt": "-9", "airport_id": "7072", "iata_code": "SGY", "city_iata_code": "SGY", "icao_code": "PAGY", "country_iso2": "US", "geoname_id": "5557318", "latitude": "59.460556", "longitude": "-135.31555", "airport_name": "Skagway Municipal", "country_name": "United States", "phone_number": null, "timezone": "America/Anchorage"}, {"id": "6539847", "gmt": "7", "airport_id": "7073", "iata_code": "SGZ", "city_iata_code": "SGZ", "icao_code": "VTSH", "country_iso2": "TH", "geoname_id": "1606149", "latitude": "7.183889", "longitude": "100.61667", "airport_name": "Songkhla", "country_name": "Thailand", "phone_number": null, "timezone": "Asia/Bangkok"}, {"id": "6539848", "gmt": "8", "airport_id": "7074", "iata_code": "SHA", "city_iata_code": "SHA", "icao_code": "ZSSS", "country_iso2": "CN", "geoname_id": "6301388", "latitude": "31.196815", "longitude": "121.34197", "airport_name": "Shanghai Hongqiao International", "country_name": "China", "phone_number": null, "timezone": "Asia/Shanghai"}, {"id": "6539849", "gmt": "9", "airport_id": "7075", "iata_code": "SHB", "city_iata_code": "SHB", "icao_code": "RJCN", "country_iso2": "JP", "geoname_id": "6300326", "latitude": "43.572197", "longitude": "144.95613", "airport_name": "Nakashibetsu", "country_name": "Japan", "phone_number": null, "timezone": "Asia/Tokyo"}, {"id": "6539851", "gmt": "-5", "airport_id": "7077", "iata_code": "SHD", "city_iata_code": "SHD", "icao_code": "KSHD", "country_iso2": "US", "geoname_id": "4785295", "latitude": "38.26389", "longitude": "-78.89667", "airport_name": "Shenandoah Valley", "country_name": "United States", "phone_number": null, "timezone": "America/New_York"}, {"id": "6539852", "gmt": "8", "airport_id": "7078", "iata_code": "SHE", "city_iata_code": "SHE", "icao_code": "ZYTX", "country_iso2": "CN", "geoname_id": "6301402", "latitude": "41.861084", "longitude": "123.426926", "airport_name": "Shenyang", "country_name": "China", "phone_number": null, "timezone": "Asia/Shanghai"}, {"id": "6539853", "gmt": "-9", "airport_id": "7079", "iata_code": "SHG", "city_iata_code": "SHG", "icao_code": "PAGH", "country_iso2": "US", "geoname_id": "5874124", "latitude": "66.889725", "longitude": "-157.15778", "airport_name": "Shungnak", "country_name": "United States", "phone_number": null, "timezone": "America/Anchorage"}, {"id": "6539854", "gmt": "-9", "airport_id": "7080", "iata_code": "SHH", "city_iata_code": "SHH", "icao_code": "PASH", "country_iso2": "US", "geoname_id": "5874016", "latitude": "66.25694", "longitude": "-166.05833", "airport_name": "Shishmaref", "country_name": "United States", "phone_number": null, "timezone": "America/Anchorage"}, {"id": "6539855", "gmt": "9", "airport_id": "7081", "iata_code": "SHI", "city_iata_code": "SHI", "icao_code": "RORS", "country_iso2": "JP", "geoname_id": "6300467", "latitude": "24.816668", "longitude": "125.15", "airport_name": "Shimojishima", "country_name": "Japan", "phone_number": null, "timezone": "Asia/Tokyo"}, {"id": "6539856", "gmt": "4", "airport_id": "7082", "iata_code": "SHJ", "city_iata_code": "SHJ", "icao_code": "OMSJ", "country_iso2": "AE", "geoname_id": "6300099", "latitude": "25.320873", "longitude": "55.52029", "airport_name": "Sharjah", "country_name": "United Arab Emirates", "phone_number": null, "timezone": "Asia/Dubai"}, {"id": "6539857", "gmt": "2", "airport_id": "7083", "iata_code": "SHK", "city_iata_code": "SHK", "icao_code": "FXSH", "country_iso2": "LS", "geoname_id": "7730543", "latitude": "-29.475", "longitude": "27.833332", "airport_name": "Sehonghong", "country_name": "Lesotho", "phone_number": null, "timezone": "Africa/Maseru"}, {"id": "6539858", "gmt": "5.30", "airport_id": "7084", "iata_code": "SHL", "city_iata_code": "SHL", "icao_code": "VEBI", "country_iso2": "IN", "geoname_id": "7668588", "latitude": "25.566668", "longitude": "91.88333", "airport_name": "Barapani", "country_name": "India", "phone_number": null, "timezone": "Asia/Kolkata"}, {"id": "6539859", "gmt": "9", "airport_id": "7085", "iata_code": "SHM", "city_iata_code": "SHM", "icao_code": "RJBD", "country_iso2": "JP", "geoname_id": "6300317", "latitude": "33.66139", "longitude": "135.35806", "airport_name": "Shirahama", "country_name": "Japan", "phone_number": null, "timezone": "Asia/Tokyo"}, {"id": "6539860", "gmt": "-8", "airport_id": "7086", "iata_code": "SHN", "city_iata_code": "SHN", "icao_code": "KSHN", "country_iso2": "US", "geoname_id": "5810176", "latitude": "47.23389", "longitude": "-123.138885", "airport_name": "Sanderson Field", "country_name": "United States", "phone_number": null, "timezone": "America/Los_Angeles"}, {"id": "6539862", "gmt": "8", "airport_id": "7088", "iata_code": "SHP", "city_iata_code": "SHP", "icao_code": "ZBSH", "country_iso2": "CN", "geoname_id": "7730282", "latitude": "39.965214", "longitude": "119.71656", "airport_name": "Qinhuangdao", "country_name": "China", "phone_number": null, "timezone": "Asia/Shanghai"}, {"id": "6539863", "gmt": "10", "airport_id": "7089", "iata_code": "SHQ", "city_iata_code": "SHQ", "icao_code": "YSPT", "country_iso2": "AU", "geoname_id": "7668771", "latitude": "-27.951944", "longitude": "153.42778", "airport_name": "Southport", "country_name": "Australia", "phone_number": null, "timezone": "Australia/Brisbane"}, {"id": "6539864", "gmt": "-7", "airport_id": "7090", "iata_code": "SHR", "city_iata_code": "SHR", "icao_code": "KSHR", "country_iso2": "US", "geoname_id": "5838200", "latitude": "44.774166", "longitude": "-106.97722", "airport_name": "Sheridan", "country_name": "United States", "phone_number": null, "timezone": "America/Denver"}, {"id": "6539865", "gmt": "8", "airport_id": "7091", "iata_code": "SHS", "city_iata_code": "SHS", "icao_code": "ZHSS", "country_iso2": "CN", "geoname_id": "7731492", "latitude": "30.316668", "longitude": "112.23333", "airport_name": "Shashi", "country_name": "China", "phone_number": null, "timezone": "Asia/Shanghai"}, {"id": "6539866", "gmt": "10", "airport_id": "7092", "iata_code": "SHT", "city_iata_code": "SHT", "icao_code": "YSHT", "country_iso2": "AU", "geoname_id": "7668768", "latitude": "-36.38333", "longitude": "145.43333", "airport_name": "Shepparton", "country_name": "Australia", "phone_number": null, "timezone": "Australia/Melbourne"}, {"id": "6539868", "gmt": "-6", "airport_id": "7094", "iata_code": "SHV", "city_iata_code": "SHV", "icao_code": "KSHV", "country_iso2": "US", "geoname_id": "4341523", "latitude": "32.45471", "longitude": "-93.828384", "airport_name": "Shreveport Regional Airport", "country_name": "United States", "phone_number": null, "timezone": "America/Chicago"}, {"id": "6539869", "gmt": "3", "airport_id": "7095", "iata_code": "SHW", "city_iata_code": "SHW", "icao_code": "OESH", "country_iso2": "SA", "geoname_id": "6300027", "latitude": "17.46946", "longitude": "47.111984", "airport_name": "Sharurah", "country_name": "Saudi Arabia", "phone_number": null, "timezone": "Asia/Riyadh"}, {"id": "6539870", "gmt": "-9", "airport_id": "7096", "iata_code": "SHX", "city_iata_code": "SHX", "icao_code": "PAHX", "country_iso2": "US", "geoname_id": "5873802", "latitude": "62.69583", "longitude": "-159.56667", "airport_name": "Shageluk", "country_name": "United States", "phone_number": null, "timezone": "America/Anchorage"}, {"id": "6539871", "gmt": "3", "airport_id": "7097", "iata_code": "SHY", "city_iata_code": "SHY", "icao_code": "HTSY", "country_iso2": "TZ", "geoname_id": "150006", "latitude": "-3.608185", "longitude": "33.504486", "airport_name": "Shinyanga", "country_name": "Tanzania", "phone_number": null, "timezone": "Africa/Dar_es_Salaam"}, {"id": "6539872", "gmt": "2", "airport_id": "7098", "iata_code": "SHZ", "city_iata_code": "SHZ", "icao_code": "FXSS", "country_iso2": "LS", "geoname_id": "7730546", "latitude": "-29.166668", "longitude": "28", "airport_name": "Seshutes", "country_name": "Lesotho", "phone_number": null, "timezone": "Africa/Maseru"}, {"id": "6539874", "gmt": "-5", "airport_id": "7100", "iata_code": "SIC", "city_iata_code": "SIC", "icao_code": "LTCM", "country_iso2": "PA", "geoname_id": "739600", "latitude": "42.0175", "longitude": "35.06889", "airport_name": "Sinop Airport", "country_name": "Panama", "phone_number": null, "timezone": "America/Panama"}, {"id": "6539875", "gmt": "-1", "airport_id": "7101", "iata_code": "SID", "city_iata_code": "SID", "icao_code": "GVAC", "country_iso2": "CV", "geoname_id": "6297256", "latitude": "16.734695", "longitude": "-22.943613", "airport_name": "Amilcar Cabral International", "country_name": "Cape Verde", "phone_number": null, "timezone": "Atlantic/Cape_Verde"}, {"id": "6539876", "gmt": null, "airport_id": "7102", "iata_code": "SIE", "city_iata_code": "SIE", "icao_code": "LPSI", "country_iso2": "PT", "geoname_id": "7730640", "latitude": "37.933334", "longitude": "-8.85", "airport_name": "Sines", "country_name": "Portugal", "phone_number": null, "timezone": "Europe/Lisbon"}, {"id": "6539877", "gmt": "5.45", "airport_id": "7103", "iata_code": "SIF", "city_iata_code": "SIF", "icao_code": "VNSI", "country_iso2": "NP", "geoname_id": "6301114", "latitude": "27.163563", "longitude": "84.979195", "airport_name": "Simara", "country_name": "Nepal", "phone_number": null, "timezone": "Asia/Kathmandu"}, {"id": "6539878", "gmt": "-4", "airport_id": "7104", "iata_code": "SIG", "city_iata_code": "SJU", "icao_code": "TJIG", "country_iso2": "PR", "geoname_id": "4564968", "latitude": "18.458889", "longitude": "-66.102776", "airport_name": "Isla Grande", "country_name": "Puerto Rico", "phone_number": null, "timezone": "America/Puerto_Rico"}, {"id": "6539879", "gmt": "5.45", "airport_id": "7105", "iata_code": "SIH", "city_iata_code": "SIH", "icao_code": "VNDT", "country_iso2": "NP", "geoname_id": "7731493", "latitude": "29.266666", "longitude": "80.975", "airport_name": "Silgadi Doti", "country_name": "Nepal", "phone_number": null, "timezone": "Asia/Kathmandu"}, {"id": "6539880", "gmt": null, "airport_id": "7106", "iata_code": "SII", "city_iata_code": "SII", "icao_code": "GMMF", "country_iso2": "MA", "geoname_id": "6297209", "latitude": "29.4", "longitude": "-10.2", "airport_name": "Sidi Ifni", "country_name": "Morocco", "phone_number": null, "timezone": "Africa/Casablanca"}, {"id": "6539881", "gmt": null, "airport_id": "7107", "iata_code": "SIJ", "city_iata_code": "SIJ", "icao_code": "BISI", "country_iso2": "IS", "geoname_id": "7668106", "latitude": "66.166664", "longitude": "-18.933332", "airport_name": "Siglufjordur", "country_name": "Iceland", "phone_number": null, "timezone": "Atlantic/Reykjavik"}, {"id": "6539882", "gmt": "-6", "airport_id": "7108", "iata_code": "SIK", "city_iata_code": "SIK", "icao_code": "KSIK", "country_iso2": "US", "geoname_id": "4408673", "latitude": "36.86667", "longitude": "-89.55", "airport_name": "Memorial", "country_name": "United States", "phone_number": null, "timezone": "America/Chicago"}, {"id": "6539885", "gmt": "8", "airport_id": "7111", "iata_code": "SIN", "city_iata_code": "SIN", "icao_code": "WSSS", "country_iso2": "SG", "geoname_id": "1880725", "latitude": "1.361173", "longitude": "103.990204", "airport_name": "Singapore Changi", "country_name": "Singapore", "phone_number": "(65) 6595 686", "timezone": "Asia/Singapore"}, {"id": "6539886", "gmt": "10", "airport_id": "7112", "iata_code": "SIO", "city_iata_code": "SIO", "icao_code": "YSMI", "country_iso2": "AU", "geoname_id": "7668769", "latitude": "-40.835835", "longitude": "145.08167", "airport_name": "Smithton", "country_name": "Australia", "phone_number": null, "timezone": "Australia/Hobart"}]}